[
 {
  "SiteName": "Abadla",
  "SiteType": "Camp",
  "EncyStruc": "Vichy Africa",
  "dropdown_EncyStruc": "Vichy Africa",
  "lat": 31.02496,
  "lng": -2.7106
 },
 {
  "SiteName": "Abteroda men",
  "SiteType": "Subcamp",
  "EncyStruc": "Buchenwald",
  "dropdown_EncyStruc": "Buchenwald",
  "lat": 50.9059,
  "lng": 10.07349
 },
 {
  "SiteName": "Abteroda women",
  "SiteType": "Subcamp",
  "EncyStruc": "Buchenwald",
  "dropdown_EncyStruc": "Buchenwald",
  "lat": 50.9059,
  "lng": 10.07349
 },
 {
  "SiteName": "Acmecetca",
  "SiteType": "Camp",
  "EncyStruc": "Romania",
  "dropdown_EncyStruc": "Romania",
  "lat": 47.65694,
  "lng": 31.21083
 },
 {
  "SiteName": "Adlershorst",
  "SiteType": "Subcamp",
  "EncyStruc": "Stutthof",
  "dropdown_EncyStruc": "Stutthof",
  "lat": 54.47718,
  "lng": 18.54795
 },
 {
  "SiteName": "Agde",
  "SiteType": "Camp",
  "EncyStruc": "France/Vichy",
  "dropdown_EncyStruc": "France/Vichy",
  "lat": 43.31244,
  "lng": 3.47083
 },
 {
  "SiteName": "Agdz",
  "SiteType": "Camp",
  "EncyStruc": "Vichy Africa",
  "dropdown_EncyStruc": "Vichy Africa",
  "lat": 30.70402,
  "lng": -6.45244
 },
 {
  "SiteName": "Aglona                  ",
  "SiteType": "Ghetto",
  "EncyStruc": "Estonia and Latvia Regions",
  "dropdown_EncyStruc": "Estonia and Latvia Regions",
  "lat": 56.1238,
  "lng": 27.0163
 },
 {
  "SiteName": "Agnone",
  "SiteType": "Camp",
  "EncyStruc": "Italy",
  "dropdown_EncyStruc": "Italy",
  "lat": 41.80867,
  "lng": 14.37389
 },
 {
  "SiteName": "Ahrensbök-Holstendorf",
  "SiteType": "Subcamp",
  "EncyStruc": "Early camps",
  "dropdown_EncyStruc": "Early camps",
  "lat": 54.02614,
  "lng": 10.59356
 },
 {
  "SiteName": "Ain Guenfounda",
  "SiteType": "Camp",
  "EncyStruc": "Vichy Africa",
  "dropdown_EncyStruc": "Vichy Africa",
  "lat": 34.48807,
  "lng": -2.04423
 },
 {
  "SiteName": "Ain Sefra",
  "SiteType": "Camp",
  "EncyStruc": "Vichy Africa",
  "dropdown_EncyStruc": "Vichy Africa",
  "lat": 32.76088,
  "lng": -0.56481
 },
 {
  "SiteName": "Aincourt",
  "SiteType": "Camp",
  "EncyStruc": "France/Vichy",
  "dropdown_EncyStruc": "France/Vichy",
  "lat": 49.07326,
  "lng": 1.77128
 },
 {
  "SiteName": "Aizpute                 ",
  "SiteType": "Ghetto",
  "EncyStruc": "Estonia and Latvia Regions",
  "dropdown_EncyStruc": "Estonia and Latvia Regions",
  "lat": 56.72425,
  "lng": 21.60653
 },
 {
  "SiteName": "Akbou",
  "SiteType": "Camp",
  "EncyStruc": "Vichy Africa",
  "dropdown_EncyStruc": "Vichy Africa",
  "lat": 36.45522,
  "lng": 4.53821
 },
 {
  "SiteName": "Akhtyrka",
  "SiteType": "Ghetto",
  "EncyStruc": "Eastern Ukraine and Crimea Region",
  "dropdown_EncyStruc": "Eastern Ukraine and Crimea Region",
  "lat": 50.3,
  "lng": 34.88333
 },
 {
  "SiteName": "Akmenė",
  "SiteType": "Ghetto",
  "EncyStruc": "Lithuania Region",
  "dropdown_EncyStruc": "Lithuania Region",
  "lat": 56.24604,
  "lng": 22.74506
 },
 {
  "SiteName": "Akronafplia",
  "SiteType": "Camp",
  "EncyStruc": "Italian-occupied Greece",
  "dropdown_EncyStruc": "Italian-occupied Greece",
  "lat": 37.56731,
  "lng": 22.80156
 },
 {
  "SiteName": "Alberobello",
  "SiteType": "Camp",
  "EncyStruc": "Italy",
  "dropdown_EncyStruc": "Italy",
  "lat": 40.78622,
  "lng": 17.23761
 },
 {
  "SiteName": "Alboussière",
  "SiteType": "Camp",
  "EncyStruc": "France/Vichy",
  "dropdown_EncyStruc": "France/Vichy",
  "lat": 44.94139,
  "lng": 4.73
 },
 {
  "SiteName": "Alderney Kanalinsel SS-BB I",
  "SiteType": "Subcamp",
  "EncyStruc": "SS-Baubrigaden & SS-Eisenbahnbaubrigaden",
  "dropdown_EncyStruc": "SS-Baubrigaden & SS-Eisenbahnbaubrigaden",
  "lat": 49.70491,
  "lng": -2.21856
 },
 {
  "SiteName": "Aleksandria",
  "SiteType": "Ghetto",
  "EncyStruc": "Volhynia and Podolia Region",
  "dropdown_EncyStruc": "Volhynia and Podolia Region",
  "lat": 50.73399,
  "lng": 26.34383
 },
 {
  "SiteName": "Aleksandrovka",
  "SiteType": "Ghetto",
  "EncyStruc": "Nikolaev and Dnepropetrovsk Regions",
  "dropdown_EncyStruc": "Nikolaev and Dnepropetrovsk Regions",
  "lat": 48.96667,
  "lng": 32.23333
 },
 {
  "SiteName": "Alexandrodar",
  "SiteType": "Camp",
  "EncyStruc": "Romania",
  "dropdown_EncyStruc": "Romania",
  "lat": 47.68278,
  "lng": 30.87722
 },
 {
  "SiteName": "Alexandrovca",
  "SiteType": "Camp",
  "EncyStruc": "Romania",
  "dropdown_EncyStruc": "Romania",
  "lat": 46.327,
  "lng": 30.635
 },
 {
  "SiteName": "Allendorf",
  "SiteType": "Subcamp",
  "EncyStruc": "Buchenwald",
  "dropdown_EncyStruc": "Buchenwald",
  "lat": 50.82178,
  "lng": 8.98606
 },
 {
  "SiteName": "Alsėdžiai",
  "SiteType": "Ghetto",
  "EncyStruc": "Lithuania Region",
  "dropdown_EncyStruc": "Lithuania Region",
  "lat": 56.03333,
  "lng": 22.05
 },
 {
  "SiteName": "Alt Daber",
  "SiteType": "Subcamp",
  "EncyStruc": "Early camps",
  "dropdown_EncyStruc": "Early camps",
  "lat": 53.20475,
  "lng": 12.50139
 },
 {
  "SiteName": "Alt-Garge",
  "SiteType": "Subcamp",
  "EncyStruc": "Neuengamme",
  "dropdown_EncyStruc": "Neuengamme",
  "lat": 53.26661,
  "lng": 10.79999
 },
 {
  "SiteName": "Altdorf",
  "SiteType": "Subcamp",
  "EncyStruc": "Auschwitz",
  "dropdown_EncyStruc": "Auschwitz",
  "lat": 49.99325,
  "lng": 18.89917
 },
 {
  "SiteName": "Altenberg",
  "SiteType": "Subcamp",
  "EncyStruc": "Early camps",
  "dropdown_EncyStruc": "Early camps",
  "lat": 50.76647,
  "lng": 13.72824
 },
 {
  "SiteName": "Altenburg men",
  "SiteType": "Subcamp",
  "EncyStruc": "Buchenwald",
  "dropdown_EncyStruc": "Buchenwald",
  "lat": 51.004,
  "lng": 12.43891
 },
 {
  "SiteName": "Altenburg women",
  "SiteType": "Subcamp",
  "EncyStruc": "Buchenwald",
  "dropdown_EncyStruc": "Buchenwald",
  "lat": 51.004,
  "lng": 12.43891
 },
 {
  "SiteName": "Altenhammer",
  "SiteType": "Subcamp",
  "EncyStruc": "Flossenbürg",
  "dropdown_EncyStruc": "Flossenbürg",
  "lat": 49.73089,
  "lng": 12.32649
 },
 {
  "SiteName": "Althammer",
  "SiteType": "Subcamp",
  "EncyStruc": "Auschwitz",
  "dropdown_EncyStruc": "Auschwitz",
  "lat": 50.23624,
  "lng": 18.85117
 },
 {
  "SiteName": "Alushta",
  "SiteType": "Ghetto",
  "EncyStruc": "Eastern Ukraine and Crimea Region",
  "dropdown_EncyStruc": "Eastern Ukraine and Crimea Region",
  "lat": 44.67597,
  "lng": 34.40986
 },
 {
  "SiteName": "Alytus",
  "SiteType": "Ghetto",
  "EncyStruc": "Lithuania Region",
  "dropdown_EncyStruc": "Lithuania Region",
  "lat": 54.4,
  "lng": 24.05
 },
 {
  "SiteName": "Amersfoort",
  "SiteType": "Subcamp",
  "EncyStruc": "Herzogenbusch",
  "dropdown_EncyStruc": "Herzogenbusch",
  "lat": 52.13222,
  "lng": 5.36544
 },
 {
  "SiteName": "Amstetten II women",
  "SiteType": "Subcamp",
  "EncyStruc": "Mauthausen",
  "dropdown_EncyStruc": "Mauthausen",
  "lat": 48.11225,
  "lng": 14.87719
 },
 {
  "SiteName": "Amstetten men",
  "SiteType": "Subcamp",
  "EncyStruc": "Mauthausen",
  "dropdown_EncyStruc": "Mauthausen",
  "lat": 48.11225,
  "lng": 14.87719
 },
 {
  "SiteName": "Anafi Island",
  "SiteType": "Camp",
  "EncyStruc": "Italian-occupied Greece",
  "dropdown_EncyStruc": "Italian-occupied Greece",
  "lat": 36.35144,
  "lng": 25.76803
 },
 {
  "SiteName": "Ananiev",
  "SiteType": "Ghetto",
  "EncyStruc": "Romania",
  "dropdown_EncyStruc": "Romania",
  "lat": 47.71486,
  "lng": 29.99067
 },
 {
  "SiteName": "Andrushevka",
  "SiteType": "Ghetto",
  "EncyStruc": "Zhytomyr Region",
  "dropdown_EncyStruc": "Zhytomyr Region",
  "lat": 50.01667,
  "lng": 29.01667
 },
 {
  "SiteName": "Andrychów",
  "SiteType": "Ghetto",
  "EncyStruc": "Eastern Upper Silesia Region",
  "dropdown_EncyStruc": "Eastern Upper Silesia Region",
  "lat": 49.85,
  "lng": 19.35
 },
 {
  "SiteName": "Ankenbuck",
  "SiteType": "Subcamp",
  "EncyStruc": "Early camps",
  "dropdown_EncyStruc": "Early camps",
  "lat": 48.00071,
  "lng": 8.51219
 },
 {
  "SiteName": "Annaburg",
  "SiteType": "Subcamp",
  "EncyStruc": "Buchenwald",
  "dropdown_EncyStruc": "Buchenwald",
  "lat": 51.73955,
  "lng": 13.04111
 },
 {
  "SiteName": "Annecy",
  "SiteType": "Camp",
  "EncyStruc": "France/Vichy",
  "dropdown_EncyStruc": "France/Vichy",
  "lat": 45.9,
  "lng": 6.11667
 },
 {
  "SiteName": "Annopol’",
  "SiteType": "Ghetto",
  "EncyStruc": "Volhynia and Podolia Region",
  "dropdown_EncyStruc": "Volhynia and Podolia Region",
  "lat": 50.45,
  "lng": 26.9
 },
 {
  "SiteName": "Anrath bei Krefeld",
  "SiteType": "Subcamp",
  "EncyStruc": "Early camps",
  "dropdown_EncyStruc": "Early camps",
  "lat": 51.28582,
  "lng": 6.45564
 },
 {
  "SiteName": "Ansbach",
  "SiteType": "Subcamp",
  "EncyStruc": "Ravensbrück",
  "dropdown_EncyStruc": "Ravensbrück",
  "lat": 49.3,
  "lng": 10.58329
 },
 {
  "SiteName": "Antivari ",
  "SiteType": "Camp",
  "EncyStruc": "Italian-occupied Yugoslavia",
  "dropdown_EncyStruc": "Italian-occupied Yugoslavia",
  "lat": 42.08094,
  "lng": 19.10986
 },
 {
  "SiteName": "Antopol",
  "SiteType": "Ghetto",
  "EncyStruc": "Volhynia and Podolia Region",
  "dropdown_EncyStruc": "Volhynia and Podolia Region",
  "lat": 52.2,
  "lng": 24.78333
 },
 {
  "SiteName": "Anykščiai",
  "SiteType": "Ghetto",
  "EncyStruc": "Lithuania Region",
  "dropdown_EncyStruc": "Lithuania Region",
  "lat": 55.53333,
  "lng": 25.1
 },
 {
  "SiteName": "Aosta",
  "SiteType": "Camp",
  "EncyStruc": "Italy",
  "dropdown_EncyStruc": "Italy",
  "lat": 45.735,
  "lng": 7.31322
 },
 {
  "SiteName": "Apolda",
  "SiteType": "Subcamp",
  "EncyStruc": "Buchenwald",
  "dropdown_EncyStruc": "Buchenwald",
  "lat": 51.02612,
  "lng": 11.51732
 },
 {
  "SiteName": "Aprica",
  "SiteType": "Camp",
  "EncyStruc": "Italy",
  "dropdown_EncyStruc": "Italy",
  "lat": 46.15319,
  "lng": 10.15136
 },
 {
  "SiteName": "Aravecchia",
  "SiteType": "Camp",
  "EncyStruc": "Italy",
  "dropdown_EncyStruc": "Italy",
  "lat": 49.32022,
  "lng": 8.41858
 },
 {
  "SiteName": "Arbe",
  "SiteType": "Camp",
  "EncyStruc": "Italian-occupied Yugoslavia",
  "dropdown_EncyStruc": "Italian-occupied Yugoslavia",
  "lat": 44.78242,
  "lng": 14.7525
 },
 {
  "SiteName": "Arbeitsdorf",
  "SiteType": "Main camp",
  "EncyStruc": "Arbeitsdorf",
  "dropdown_EncyStruc": "Arbeitsdorf",
  "lat": 52.43445,
  "lng": 10.78222
 },
 {
  "SiteName": "Arc-et-Senans",
  "SiteType": "Camp",
  "EncyStruc": "France/Vichy",
  "dropdown_EncyStruc": "France/Vichy",
  "lat": 47.03296,
  "lng": 5.78117
 },
 {
  "SiteName": "Argelèrs-sur-Mer",
  "SiteType": "Camp",
  "EncyStruc": "France/Vichy",
  "dropdown_EncyStruc": "France/Vichy",
  "lat": 42.54722,
  "lng": 3.0225
 },
 {
  "SiteName": "Ariano Irpino",
  "SiteType": "Camp",
  "EncyStruc": "Italy",
  "dropdown_EncyStruc": "Italy",
  "lat": 41.154,
  "lng": 15.093
 },
 {
  "SiteName": "Ariogala",
  "SiteType": "Ghetto",
  "EncyStruc": "Lithuania Region",
  "dropdown_EncyStruc": "Lithuania Region",
  "lat": 55.26149,
  "lng": 23.4777
 },
 {
  "SiteName": "Arnheim",
  "SiteType": "Subcamp",
  "EncyStruc": "Herzogenbusch",
  "dropdown_EncyStruc": "Herzogenbusch",
  "lat": 52.00191,
  "lng": 5.92856
 },
 {
  "SiteName": "Arolsen",
  "SiteType": "Subcamp",
  "EncyStruc": "Buchenwald",
  "dropdown_EncyStruc": "Buchenwald",
  "lat": 51.37804,
  "lng": 9.01505
 },
 {
  "SiteName": "Artemovsk",
  "SiteType": "Ghetto",
  "EncyStruc": "Eastern Ukraine and Crimea Region",
  "dropdown_EncyStruc": "Eastern Ukraine and Crimea Region",
  "lat": 48.58333,
  "lng": 38.0
 },
 {
  "SiteName": "Artern",
  "SiteType": "Subcamp",
  "EncyStruc": "Mittelbau",
  "dropdown_EncyStruc": "Mittelbau",
  "lat": 51.36669,
  "lng": 11.30001
 },
 {
  "SiteName": "Aschersleben men",
  "SiteType": "Subcamp",
  "EncyStruc": "Buchenwald",
  "dropdown_EncyStruc": "Buchenwald",
  "lat": 51.75911,
  "lng": 11.46174
 },
 {
  "SiteName": "Aschersleben women",
  "SiteType": "Subcamp",
  "EncyStruc": "Buchenwald",
  "dropdown_EncyStruc": "Buchenwald",
  "lat": 51.75911,
  "lng": 11.46174
 },
 {
  "SiteName": "Aseri",
  "SiteType": "Subcamp",
  "EncyStruc": "Vaivara",
  "dropdown_EncyStruc": "Vaivara",
  "lat": 59.45535,
  "lng": 26.87481
 },
 {
  "SiteName": "Aslau",
  "SiteType": "Subcamp",
  "EncyStruc": "Gross-Rosen",
  "dropdown_EncyStruc": "Gross-Rosen",
  "lat": 51.30618,
  "lng": 15.77972
 },
 {
  "SiteName": "Asti",
  "SiteType": "Camp",
  "EncyStruc": "Italy",
  "dropdown_EncyStruc": "Italy",
  "lat": 44.90086,
  "lng": 8.20681
 },
 {
  "SiteName": "Athens / Averōf Prison",
  "SiteType": "Camp",
  "EncyStruc": "Italian-occupied Greece",
  "dropdown_EncyStruc": "Italian-occupied Greece",
  "lat": 37.989,
  "lng": 23.72814
 },
 {
  "SiteName": "Athens / Empeirikeio",
  "SiteType": "Camp",
  "EncyStruc": "Italian-occupied Greece",
  "dropdown_EncyStruc": "Italian-occupied Greece",
  "lat": 37.98711,
  "lng": 23.75664
 },
 {
  "SiteName": "Athens / Kallithéa",
  "SiteType": "Camp",
  "EncyStruc": "Italian-occupied Greece",
  "dropdown_EncyStruc": "Italian-occupied Greece",
  "lat": 37.95692,
  "lng": 23.69803
 },
 {
  "SiteName": "Audaux",
  "SiteType": "Camp",
  "EncyStruc": "France/Vichy",
  "dropdown_EncyStruc": "France/Vichy",
  "lat": 43.35889,
  "lng": 0.79283
 },
 {
  "SiteName": "Audun-le-Tiche ",
  "SiteType": "Subcamp",
  "EncyStruc": "Natzweiler-Struthof",
  "dropdown_EncyStruc": "Natzweiler-Struthof",
  "lat": 49.46721,
  "lng": 5.94811
 },
 {
  "SiteName": "Aue",
  "SiteType": "Subcamp",
  "EncyStruc": "Flossenbürg",
  "dropdown_EncyStruc": "Flossenbürg",
  "lat": 50.58487,
  "lng": 12.70739
 },
 {
  "SiteName": "Augsburg Michelwerke",
  "SiteType": "Subcamp",
  "EncyStruc": "Dachau",
  "dropdown_EncyStruc": "Dachau",
  "lat": 48.37893,
  "lng": 10.8528
 },
 {
  "SiteName": "Augsburg-Horgau",
  "SiteType": "Subcamp",
  "EncyStruc": "Dachau",
  "dropdown_EncyStruc": "Dachau",
  "lat": 48.39684,
  "lng": 10.68288
 },
 {
  "SiteName": "Augsburg-Pfersee",
  "SiteType": "Subcamp",
  "EncyStruc": "Dachau",
  "dropdown_EncyStruc": "Dachau",
  "lat": 48.36014,
  "lng": 10.85445
 },
 {
  "SiteName": "Augustów",
  "SiteType": "Ghetto",
  "EncyStruc": "Białystok Region",
  "dropdown_EncyStruc": "Białystok Region",
  "lat": 53.84344,
  "lng": 22.9796
 },
 {
  "SiteName": "Aulus-les-Bains",
  "SiteType": "Ghetto",
  "EncyStruc": "France/Vichy",
  "dropdown_EncyStruc": "France/Vichy",
  "lat": 42.79067,
  "lng": 1.33936
 },
 {
  "SiteName": "Aumale SS-BB V",
  "SiteType": "Subcamp",
  "EncyStruc": "SS-Baubrigaden & SS-Eisenbahnbaubrigaden",
  "dropdown_EncyStruc": "SS-Baubrigaden & SS-Eisenbahnbaubrigaden",
  "lat": 49.7684,
  "lng": 1.75222
 },
 {
  "SiteName": "Auschwitz I",
  "SiteType": "Main camp",
  "EncyStruc": "Auschwitz",
  "dropdown_EncyStruc": "Auschwitz",
  "lat": 50.0262,
  "lng": 19.2041
 },
 {
  "SiteName": "Auschwitz II-Birkenau",
  "SiteType": "Main camp",
  "EncyStruc": "Auschwitz",
  "dropdown_EncyStruc": "Auschwitz",
  "lat": 50.03734,
  "lng": 19.17548
 },
 {
  "SiteName": "Auschwitz III-Monowitz",
  "SiteType": "Main camp",
  "EncyStruc": "Auschwitz",
  "dropdown_EncyStruc": "Auschwitz",
  "lat": 50.03322,
  "lng": 19.29246
 },
 {
  "SiteName": "Auvere",
  "SiteType": "Subcamp",
  "EncyStruc": "Vaivara",
  "dropdown_EncyStruc": "Vaivara",
  "lat": 59.34284,
  "lng": 27.93695
 },
 {
  "SiteName": "Babitz",
  "SiteType": "Subcamp",
  "EncyStruc": "Auschwitz",
  "dropdown_EncyStruc": "Auschwitz",
  "lat": 50.05366,
  "lng": 19.20934
 },
 {
  "SiteName": "Babtai",
  "SiteType": "Ghetto",
  "EncyStruc": "Lithuania Region",
  "dropdown_EncyStruc": "Lithuania Region",
  "lat": 55.08813,
  "lng": 23.79672
 },
 {
  "SiteName": "Bachmanning",
  "SiteType": "Subcamp",
  "EncyStruc": "Mauthausen",
  "dropdown_EncyStruc": "Mauthausen",
  "lat": 48.1232,
  "lng": 13.79814
 },
 {
  "SiteName": "Bad Ischl",
  "SiteType": "Subcamp",
  "EncyStruc": "Dachau",
  "dropdown_EncyStruc": "Dachau",
  "lat": 47.72069,
  "lng": 13.63709
 },
 {
  "SiteName": "Bad Nauheim OT-Polizeihaftlager",
  "SiteType": "Subcamp",
  "EncyStruc": "Hinzert",
  "dropdown_EncyStruc": "Hinzert",
  "lat": 50.35735,
  "lng": 8.73555
 },
 {
  "SiteName": "Bad Oberdorf",
  "SiteType": "Subcamp",
  "EncyStruc": "Dachau",
  "dropdown_EncyStruc": "Dachau",
  "lat": 47.50183,
  "lng": 10.38546
 },
 {
  "SiteName": "Bad Saarow",
  "SiteType": "Subcamp",
  "EncyStruc": "Sachsenhausen",
  "dropdown_EncyStruc": "Sachsenhausen",
  "lat": 52.33642,
  "lng": 14.0861
 },
 {
  "SiteName": "Bad Salzungen Heinrich Kalb",
  "SiteType": "Subcamp",
  "EncyStruc": "Buchenwald",
  "dropdown_EncyStruc": "Buchenwald",
  "lat": 50.86866,
  "lng": 10.10285
 },
 {
  "SiteName": "Bad Salzungen Ludwig Renntier",
  "SiteType": "Subcamp",
  "EncyStruc": "Buchenwald",
  "dropdown_EncyStruc": "Buchenwald",
  "lat": 50.81716,
  "lng": 10.15973
 },
 {
  "SiteName": "Bad Sulza",
  "SiteType": "Subcamp",
  "EncyStruc": "Early camps",
  "dropdown_EncyStruc": "Early camps",
  "lat": 51.09327,
  "lng": 11.63422
 },
 {
  "SiteName": "Bad Tölz",
  "SiteType": "Subcamp",
  "EncyStruc": "Dachau",
  "dropdown_EncyStruc": "Dachau",
  "lat": 47.75818,
  "lng": 11.58425
 },
 {
  "SiteName": "Bad Warmbrunn",
  "SiteType": "Subcamp",
  "EncyStruc": "Gross-Rosen",
  "dropdown_EncyStruc": "Gross-Rosen",
  "lat": 50.87255,
  "lng": 15.68672
 },
 {
  "SiteName": "Bagni di Lucca",
  "SiteType": "Camp",
  "EncyStruc": "Italy",
  "dropdown_EncyStruc": "Italy",
  "lat": 44.00861,
  "lng": 10.57833
 },
 {
  "SiteName": "Bagno a Ripoli",
  "SiteType": "Camp",
  "EncyStruc": "Italy",
  "dropdown_EncyStruc": "Italy",
  "lat": 43.75228,
  "lng": 11.31914
 },
 {
  "SiteName": "Bagnères-de-Luchon",
  "SiteType": "Ghetto",
  "EncyStruc": "France/Vichy",
  "dropdown_EncyStruc": "France/Vichy",
  "lat": 42.78897,
  "lng": 0.59294
 },
 {
  "SiteName": "Balaiciuc",
  "SiteType": "Ghetto",
  "EncyStruc": "Romania",
  "dropdown_EncyStruc": "Romania",
  "lat": 47.08903,
  "lng": 30.70611
 },
 {
  "SiteName": "Balanovca",
  "SiteType": "Ghetto",
  "EncyStruc": "Romania",
  "dropdown_EncyStruc": "Romania",
  "lat": 48.4,
  "lng": 29.4
 },
 {
  "SiteName": "Balassagyarmat ",
  "SiteType": "Ghetto",
  "EncyStruc": "Hungary",
  "dropdown_EncyStruc": "Hungary",
  "lat": 48.0788,
  "lng": 19.29389
 },
 {
  "SiteName": "Balchi",
  "SiteType": "Ghetto",
  "EncyStruc": "Romania",
  "dropdown_EncyStruc": "Romania",
  "lat": 49.058,
  "lng": 27.684
 },
 {
  "SiteName": "Balin",
  "SiteType": "Ghetto",
  "EncyStruc": "Volhynia and Podolia Region",
  "dropdown_EncyStruc": "Volhynia and Podolia Region",
  "lat": 48.87669,
  "lng": 26.67271
 },
 {
  "SiteName": "Ballenstedt Napola",
  "SiteType": "Subcamp",
  "EncyStruc": "Mittelbau",
  "dropdown_EncyStruc": "Mittelbau",
  "lat": 51.71037,
  "lng": 11.23635
 },
 {
  "SiteName": "Balta",
  "SiteType": "Ghetto",
  "EncyStruc": "Romania",
  "dropdown_EncyStruc": "Romania",
  "lat": 47.93333,
  "lng": 29.61667
 },
 {
  "SiteName": "Balta / 120 Labor Battalion",
  "SiteType": "Camp",
  "EncyStruc": "Romania",
  "dropdown_EncyStruc": "Romania",
  "lat": 47.93713,
  "lng": 29.62715
 },
 {
  "SiteName": "Balvi                   ",
  "SiteType": "Ghetto",
  "EncyStruc": "Estonia and Latvia Regions",
  "dropdown_EncyStruc": "Estonia and Latvia Regions",
  "lat": 57.12986,
  "lng": 27.26386
 },
 {
  "SiteName": "Bamberg",
  "SiteType": "Subcamp",
  "EncyStruc": "Early camps",
  "dropdown_EncyStruc": "Early camps",
  "lat": 49.89192,
  "lng": 10.89656
 },
 {
  "SiteName": "Bar",
  "SiteType": "Ghetto",
  "EncyStruc": "Volhynia and Podolia Region",
  "dropdown_EncyStruc": "Volhynia and Podolia Region",
  "lat": 49.07689,
  "lng": 27.68267
 },
 {
  "SiteName": "Baranovka",
  "SiteType": "Ghetto",
  "EncyStruc": "Zhytomyr Region",
  "dropdown_EncyStruc": "Zhytomyr Region",
  "lat": 50.3,
  "lng": 27.66667
 },
 {
  "SiteName": "Baranowicze",
  "SiteType": "Ghetto",
  "EncyStruc": "Weissruthenien Region",
  "dropdown_EncyStruc": "Weissruthenien Region",
  "lat": 53.13214,
  "lng": 26.0167
 },
 {
  "SiteName": "Baranów Sandomierski",
  "SiteType": "Ghetto",
  "EncyStruc": "Kraków Region",
  "dropdown_EncyStruc": "Kraków Region",
  "lat": 50.49899,
  "lng": 21.54171
 },
 {
  "SiteName": "Baranów nad Wieprzem",
  "SiteType": "Ghetto",
  "EncyStruc": "Lublin Region",
  "dropdown_EncyStruc": "Lublin Region",
  "lat": 51.55604,
  "lng": 22.1329
 },
 {
  "SiteName": "Baran’",
  "SiteType": "Ghetto",
  "EncyStruc": "Eastern Belorussia Region",
  "dropdown_EncyStruc": "Eastern Belorussia Region",
  "lat": 54.48333,
  "lng": 30.31667
 },
 {
  "SiteName": "Barashi",
  "SiteType": "Ghetto",
  "EncyStruc": "Zhytomyr Region",
  "dropdown_EncyStruc": "Zhytomyr Region",
  "lat": 50.71667,
  "lng": 28.01667
 },
 {
  "SiteName": "Barcs",
  "SiteType": "Ghetto",
  "EncyStruc": "Hungary",
  "dropdown_EncyStruc": "Hungary",
  "lat": 45.95847,
  "lng": 17.46139
 },
 {
  "SiteName": "Barenton",
  "SiteType": "Camp",
  "EncyStruc": "France/Vichy",
  "dropdown_EncyStruc": "France/Vichy",
  "lat": 48.60028,
  "lng": 0.8325
 },
 {
  "SiteName": "Barth",
  "SiteType": "Subcamp",
  "EncyStruc": "Ravensbrück",
  "dropdown_EncyStruc": "Ravensbrück",
  "lat": 54.35108,
  "lng": 12.72442
 },
 {
  "SiteName": "Batakiai",
  "SiteType": "Ghetto",
  "EncyStruc": "Lithuania Region",
  "dropdown_EncyStruc": "Lithuania Region",
  "lat": 55.35,
  "lng": 22.51667
 },
 {
  "SiteName": "Batsevichi",
  "SiteType": "Ghetto",
  "EncyStruc": "Eastern Belorussia Region",
  "dropdown_EncyStruc": "Eastern Belorussia Region",
  "lat": 53.39972,
  "lng": 29.2288
 },
 {
  "SiteName": "Bauska                  ",
  "SiteType": "Ghetto",
  "EncyStruc": "Estonia and Latvia Regions",
  "dropdown_EncyStruc": "Estonia and Latvia Regions",
  "lat": 56.40428,
  "lng": 24.19381
 },
 {
  "SiteName": "Bausnitz",
  "SiteType": "Subcamp",
  "EncyStruc": "Gross-Rosen",
  "dropdown_EncyStruc": "Gross-Rosen",
  "lat": 50.54832,
  "lng": 15.98126
 },
 {
  "SiteName": "Bautzen",
  "SiteType": "Subcamp",
  "EncyStruc": "Gross-Rosen",
  "dropdown_EncyStruc": "Gross-Rosen",
  "lat": 51.16853,
  "lng": 14.41237
 },
 {
  "SiteName": "Bautzen Kupferhammer",
  "SiteType": "Subcamp",
  "EncyStruc": "Early camps",
  "dropdown_EncyStruc": "Early camps",
  "lat": 51.19012,
  "lng": 14.42904
 },
 {
  "SiteName": "Bayreuth",
  "SiteType": "Subcamp",
  "EncyStruc": "Flossenbürg",
  "dropdown_EncyStruc": "Flossenbürg",
  "lat": 49.95092,
  "lng": 11.56945
 },
 {
  "SiteName": "Bayreuth St. Georgen",
  "SiteType": "Subcamp",
  "EncyStruc": "Early camps",
  "dropdown_EncyStruc": "Early camps",
  "lat": 49.94448,
  "lng": 11.57146
 },
 {
  "SiteName": "Bayrischzell",
  "SiteType": "Subcamp",
  "EncyStruc": "Dachau",
  "dropdown_EncyStruc": "Dachau",
  "lat": 47.67367,
  "lng": 12.01395
 },
 {
  "SiteName": "Bazaliia",
  "SiteType": "Ghetto",
  "EncyStruc": "Volhynia and Podolia Region",
  "dropdown_EncyStruc": "Volhynia and Podolia Region",
  "lat": 49.71667,
  "lng": 26.46667
 },
 {
  "SiteName": "Bazzano",
  "SiteType": "Camp",
  "EncyStruc": "Italy",
  "dropdown_EncyStruc": "Italy",
  "lat": 44.50431,
  "lng": 11.07994
 },
 {
  "SiteName": "Beaune-la-Rolande",
  "SiteType": "Camp",
  "EncyStruc": "France/Vichy",
  "dropdown_EncyStruc": "France/Vichy",
  "lat": 48.06972,
  "lng": 2.43028
 },
 {
  "SiteName": "Bedeau",
  "SiteType": "Camp",
  "EncyStruc": "Vichy Africa",
  "dropdown_EncyStruc": "Vichy Africa",
  "lat": 34.49804,
  "lng": -0.81482
 },
 {
  "SiteName": "Beendorf ",
  "SiteType": "Subcamp",
  "EncyStruc": "Neuengamme",
  "dropdown_EncyStruc": "Neuengamme",
  "lat": 52.23798,
  "lng": 11.09136
 },
 {
  "SiteName": "Beerfelde",
  "SiteType": "Subcamp",
  "EncyStruc": "Sachsenhausen",
  "dropdown_EncyStruc": "Sachsenhausen",
  "lat": 52.43423,
  "lng": 14.05025
 },
 {
  "SiteName": "Begoml‘",
  "SiteType": "Ghetto",
  "EncyStruc": "Weissruthenien Region",
  "dropdown_EncyStruc": "Weissruthenien Region",
  "lat": 54.73333,
  "lng": 28.06667
 },
 {
  "SiteName": "Belaia Tserkov'",
  "SiteType": "Ghetto",
  "EncyStruc": "Kiev Region",
  "dropdown_EncyStruc": "Kiev Region",
  "lat": 49.79889,
  "lng": 30.11528
 },
 {
  "SiteName": "Belopol'e",
  "SiteType": "Ghetto",
  "EncyStruc": "Eastern Ukraine and Crimea Region",
  "dropdown_EncyStruc": "Eastern Ukraine and Crimea Region",
  "lat": 51.14869,
  "lng": 34.3157
 },
 {
  "SiteName": "Belynichi",
  "SiteType": "Ghetto",
  "EncyStruc": "Eastern Belorussia Region",
  "dropdown_EncyStruc": "Eastern Belorussia Region",
  "lat": 53.99529,
  "lng": 29.70911
 },
 {
  "SiteName": "Belzec",
  "SiteType": "Death camp",
  "EncyStruc": "",
  "dropdown_EncyStruc": "",
  "lat": 50.37249,
  "lng": 23.4564
 },
 {
  "SiteName": "Belzig",
  "SiteType": "Subcamp",
  "EncyStruc": "Sachsenhausen",
  "dropdown_EncyStruc": "Sachsenhausen",
  "lat": 52.14305,
  "lng": 12.57117
 },
 {
  "SiteName": "Ben-Chicao",
  "SiteType": "Camp",
  "EncyStruc": "Vichy Africa",
  "dropdown_EncyStruc": "Vichy Africa",
  "lat": 36.19933,
  "lng": 2.85045
 },
 {
  "SiteName": "Benninghausen",
  "SiteType": "Subcamp",
  "EncyStruc": "Early camps",
  "dropdown_EncyStruc": "Early camps",
  "lat": 51.65488,
  "lng": 8.2443
 },
 {
  "SiteName": "Bensberg Kdo. Napola SS-BB III",
  "SiteType": "Subcamp",
  "EncyStruc": "Buchenwald",
  "dropdown_EncyStruc": "Buchenwald",
  "lat": 50.96647,
  "lng": 7.16101
 },
 {
  "SiteName": "Bensheim-Auerbach",
  "SiteType": "Subcamp",
  "EncyStruc": "Natzweiler-Struthof",
  "dropdown_EncyStruc": "Natzweiler-Struthof",
  "lat": 49.70515,
  "lng": 8.64345
 },
 {
  "SiteName": "Berdichev                        ",
  "SiteType": "Ghetto",
  "EncyStruc": "Zhytomyr Region",
  "dropdown_EncyStruc": "Zhytomyr Region",
  "lat": 49.9,
  "lng": 28.58333
 },
 {
  "SiteName": "Beregszász",
  "SiteType": "Ghetto",
  "EncyStruc": "Hungary",
  "dropdown_EncyStruc": "Hungary",
  "lat": 48.2,
  "lng": 22.63331
 },
 {
  "SiteName": "Beresteczko",
  "SiteType": "Ghetto",
  "EncyStruc": "Volhynia and Podolia Region",
  "dropdown_EncyStruc": "Volhynia and Podolia Region",
  "lat": 50.36344,
  "lng": 25.11086
 },
 {
  "SiteName": "Bereza Kartuska",
  "SiteType": "Ghetto",
  "EncyStruc": "Volhynia and Podolia Region",
  "dropdown_EncyStruc": "Volhynia and Podolia Region",
  "lat": 52.55,
  "lng": 24.96667
 },
 {
  "SiteName": "Berezino",
  "SiteType": "Ghetto",
  "EncyStruc": "Eastern Belorussia Region",
  "dropdown_EncyStruc": "Eastern Belorussia Region",
  "lat": 53.83329,
  "lng": 28.99346
 },
 {
  "SiteName": "Berezne",
  "SiteType": "Ghetto",
  "EncyStruc": "Volhynia and Podolia Region",
  "dropdown_EncyStruc": "Volhynia and Podolia Region",
  "lat": 51.0,
  "lng": 26.75
 },
 {
  "SiteName": "Berezovca",
  "SiteType": "Ghetto",
  "EncyStruc": "Romania",
  "dropdown_EncyStruc": "Romania",
  "lat": 47.20056,
  "lng": 30.91722
 },
 {
  "SiteName": "Berezów",
  "SiteType": "Ghetto",
  "EncyStruc": "Volhynia and Podolia Region",
  "dropdown_EncyStruc": "Volhynia and Podolia Region",
  "lat": 51.58013,
  "lng": 27.33563
 },
 {
  "SiteName": "Bereżce",
  "SiteType": "Ghetto",
  "EncyStruc": "Volhynia and Podolia Region",
  "dropdown_EncyStruc": "Volhynia and Podolia Region",
  "lat": 50.1,
  "lng": 25.61667
 },
 {
  "SiteName": "Bereżnica",
  "SiteType": "Ghetto",
  "EncyStruc": "Volhynia and Podolia Region",
  "dropdown_EncyStruc": "Volhynia and Podolia Region",
  "lat": 51.43846,
  "lng": 26.46831
 },
 {
  "SiteName": "Berg",
  "SiteType": "Camp",
  "EncyStruc": "Norway",
  "dropdown_EncyStruc": "Norway",
  "lat": 59.26753,
  "lng": 10.40764
 },
 {
  "SiteName": "Berga-Elster ",
  "SiteType": "Subcamp",
  "EncyStruc": "Buchenwald",
  "dropdown_EncyStruc": "Buchenwald",
  "lat": 50.75219,
  "lng": 12.16167
 },
 {
  "SiteName": "Bergeggi & Celle Ligure",
  "SiteType": "Camp",
  "EncyStruc": "Italy",
  "dropdown_EncyStruc": "Italy",
  "lat": 44.24342,
  "lng": 8.43486
 },
 {
  "SiteName": "Bergen-Belsen",
  "SiteType": "Main camp",
  "EncyStruc": "Bergen-Belsen",
  "dropdown_EncyStruc": "Bergen-Belsen",
  "lat": 52.75895,
  "lng": 9.90642
 },
 {
  "SiteName": "Bergisch Gladbach",
  "SiteType": "Subcamp",
  "EncyStruc": "Early camps",
  "dropdown_EncyStruc": "Early camps",
  "lat": 50.9833,
  "lng": 7.1333
 },
 {
  "SiteName": "Bergkamen-Schönhausen",
  "SiteType": "Subcamp",
  "EncyStruc": "Early camps",
  "dropdown_EncyStruc": "Early camps",
  "lat": 51.61331,
  "lng": 7.63234
 },
 {
  "SiteName": "Berguent",
  "SiteType": "Camp",
  "EncyStruc": "Vichy Africa",
  "dropdown_EncyStruc": "Vichy Africa",
  "lat": 34.01257,
  "lng": -2.03092
 },
 {
  "SiteName": "Berlin Arado",
  "SiteType": "Subcamp",
  "EncyStruc": "Sachsenhausen",
  "dropdown_EncyStruc": "Sachsenhausen",
  "lat": 52.52329,
  "lng": 13.40899
 },
 {
  "SiteName": "Berlin Friedrich-Krause-Ufer",
  "SiteType": "Subcamp",
  "EncyStruc": "Sachsenhausen",
  "dropdown_EncyStruc": "Sachsenhausen",
  "lat": 52.5385,
  "lng": 13.35042
 },
 {
  "SiteName": "Berlin General-Pape-Strasse",
  "SiteType": "Subcamp",
  "EncyStruc": "Early camps",
  "dropdown_EncyStruc": "Early camps",
  "lat": 52.47552,
  "lng": 13.37005
 },
 {
  "SiteName": "Berlin Kastanienallee",
  "SiteType": "Subcamp",
  "EncyStruc": "Sachsenhausen",
  "dropdown_EncyStruc": "Sachsenhausen",
  "lat": 52.53888,
  "lng": 13.39776
 },
 {
  "SiteName": "Berlin Kommandoamt der Waffen-SS",
  "SiteType": "Subcamp",
  "EncyStruc": "Sachsenhausen",
  "dropdown_EncyStruc": "Sachsenhausen",
  "lat": 52.5234,
  "lng": 13.4114
 },
 {
  "SiteName": "Berlin SS-BB II",
  "SiteType": "Subcamp",
  "EncyStruc": "SS-Baubrigaden & SS-Eisenbahnbaubrigaden",
  "dropdown_EncyStruc": "SS-Baubrigaden & SS-Eisenbahnbaubrigaden",
  "lat": 52.538,
  "lng": 13.35517
 },
 {
  "SiteName": "Berlin-Charlottenburg Maikowski-Haus",
  "SiteType": "Subcamp",
  "EncyStruc": "Early camps",
  "dropdown_EncyStruc": "Early camps",
  "lat": 52.51589,
  "lng": 13.31425
 },
 {
  "SiteName": "Berlin-Hakenfelde",
  "SiteType": "Subcamp",
  "EncyStruc": "Sachsenhausen",
  "dropdown_EncyStruc": "Sachsenhausen",
  "lat": 52.5558,
  "lng": 13.20294
 },
 {
  "SiteName": "Berlin-Kreuzberg Friedrichstrasse Nr. 234",
  "SiteType": "Subcamp",
  "EncyStruc": "Early camps",
  "dropdown_EncyStruc": "Early camps",
  "lat": 52.5025,
  "lng": 13.39101
 },
 {
  "SiteName": "Berlin-Kreuzberg Hedemannstrasse",
  "SiteType": "Subcamp",
  "EncyStruc": "Early camps",
  "dropdown_EncyStruc": "Early camps",
  "lat": 52.50259,
  "lng": 13.3869
 },
 {
  "SiteName": "Berlin-Köpenick",
  "SiteType": "Subcamp",
  "EncyStruc": "Sachsenhausen",
  "dropdown_EncyStruc": "Sachsenhausen",
  "lat": 52.44812,
  "lng": 13.5697
 },
 {
  "SiteName": "Berlin-Lichtenrade",
  "SiteType": "Subcamp",
  "EncyStruc": "Sachsenhausen",
  "dropdown_EncyStruc": "Sachsenhausen",
  "lat": 52.39866,
  "lng": 13.40649
 },
 {
  "SiteName": "Berlin-Lichterfelde",
  "SiteType": "Subcamp",
  "EncyStruc": "Sachsenhausen",
  "dropdown_EncyStruc": "Sachsenhausen",
  "lat": 52.43106,
  "lng": 13.31078
 },
 {
  "SiteName": "Berlin-Marienfelde",
  "SiteType": "Subcamp",
  "EncyStruc": "Sachsenhausen",
  "dropdown_EncyStruc": "Sachsenhausen",
  "lat": 52.41144,
  "lng": 13.38234
 },
 {
  "SiteName": "Berlin-Neukölln ",
  "SiteType": "Subcamp",
  "EncyStruc": "Sachsenhausen",
  "dropdown_EncyStruc": "Sachsenhausen",
  "lat": 52.47587,
  "lng": 13.44947
 },
 {
  "SiteName": "Berlin-Niederschöneweide Pertrix",
  "SiteType": "Subcamp",
  "EncyStruc": "Sachsenhausen",
  "dropdown_EncyStruc": "Sachsenhausen",
  "lat": 52.45368,
  "lng": 13.51743
 },
 {
  "SiteName": "Berlin-Plötzensee",
  "SiteType": "Subcamp",
  "EncyStruc": "Early camps",
  "dropdown_EncyStruc": "Early camps",
  "lat": 52.5407,
  "lng": 13.32235
 },
 {
  "SiteName": "Berlin-Prenzlauer Berg",
  "SiteType": "Subcamp",
  "EncyStruc": "Early camps",
  "dropdown_EncyStruc": "Early camps",
  "lat": 52.53422,
  "lng": 13.41868
 },
 {
  "SiteName": "Berlin-Reinickendorf Argus",
  "SiteType": "Subcamp",
  "EncyStruc": "Sachsenhausen",
  "dropdown_EncyStruc": "Sachsenhausen",
  "lat": 52.57902,
  "lng": 13.36332
 },
 {
  "SiteName": "Berlin-Siemensstadt",
  "SiteType": "Subcamp",
  "EncyStruc": "Sachsenhausen",
  "dropdown_EncyStruc": "Sachsenhausen",
  "lat": 52.5381,
  "lng": 13.24859
 },
 {
  "SiteName": "Berlin-Spandau",
  "SiteType": "Subcamp",
  "EncyStruc": "Early camps",
  "dropdown_EncyStruc": "Early camps",
  "lat": 52.52116,
  "lng": 13.18775
 },
 {
  "SiteName": "Berlin-Tegel",
  "SiteType": "Subcamp",
  "EncyStruc": "Sachsenhausen",
  "dropdown_EncyStruc": "Sachsenhausen",
  "lat": 52.58557,
  "lng": 13.2811
 },
 {
  "SiteName": "Berlin-Tiergarten Universum-Landesausstellungspark",
  "SiteType": "Subcamp",
  "EncyStruc": "Early camps",
  "dropdown_EncyStruc": "Early camps",
  "lat": 52.5255,
  "lng": 13.3427
 },
 {
  "SiteName": "Berlin-Wilmersdorf",
  "SiteType": "Subcamp",
  "EncyStruc": "Sachsenhausen",
  "dropdown_EncyStruc": "Sachsenhausen",
  "lat": 52.48373,
  "lng": 13.32025
 },
 {
  "SiteName": "Berlin-Zehlendorf",
  "SiteType": "Subcamp",
  "EncyStruc": "Sachsenhausen",
  "dropdown_EncyStruc": "Sachsenhausen",
  "lat": 52.4105,
  "lng": 13.27095
 },
 {
  "SiteName": "Berlstedt",
  "SiteType": "Subcamp",
  "EncyStruc": "Buchenwald",
  "dropdown_EncyStruc": "Buchenwald",
  "lat": 51.06518,
  "lng": 11.24407
 },
 {
  "SiteName": "Bernandovca",
  "SiteType": "Camp",
  "EncyStruc": "Romania",
  "dropdown_EncyStruc": "Romania",
  "lat": 47.22722,
  "lng": 30.77158
 },
 {
  "SiteName": "Bernau",
  "SiteType": "Subcamp",
  "EncyStruc": "Sachsenhausen",
  "dropdown_EncyStruc": "Sachsenhausen",
  "lat": 52.66286,
  "lng": 13.62373
 },
 {
  "SiteName": "Bernsdorf",
  "SiteType": "Subcamp",
  "EncyStruc": "Gross-Rosen",
  "dropdown_EncyStruc": "Gross-Rosen",
  "lat": 50.64673,
  "lng": 15.96545
 },
 {
  "SiteName": "Berrouaghia",
  "SiteType": "Camp",
  "EncyStruc": "Vichy Africa",
  "dropdown_EncyStruc": "Vichy Africa",
  "lat": 36.14275,
  "lng": 2.93889
 },
 {
  "SiteName": "Bersdorf-Friedeberg",
  "SiteType": "Subcamp",
  "EncyStruc": "Gross-Rosen",
  "dropdown_EncyStruc": "Gross-Rosen",
  "lat": 50.96945,
  "lng": 15.38534
 },
 {
  "SiteName": "Berşad",
  "SiteType": "Ghetto",
  "EncyStruc": "Romania",
  "dropdown_EncyStruc": "Romania",
  "lat": 48.37278,
  "lng": 29.5325
 },
 {
  "SiteName": "Beshenkovichi",
  "SiteType": "Ghetto",
  "EncyStruc": "Eastern Belorussia Region",
  "dropdown_EncyStruc": "Eastern Belorussia Region",
  "lat": 55.04623,
  "lng": 29.45524
 },
 {
  "SiteName": "Beszterce",
  "SiteType": "Ghetto",
  "EncyStruc": "Hungary",
  "dropdown_EncyStruc": "Hungary",
  "lat": 47.13833,
  "lng": 24.51325
 },
 {
  "SiteName": "Bezhanitsy",
  "SiteType": "Ghetto",
  "EncyStruc": "Occupied Russian Territory",
  "dropdown_EncyStruc": "Occupied Russian Territory",
  "lat": 56.97406,
  "lng": 29.88128
 },
 {
  "SiteName": "Bełchatów",
  "SiteType": "Ghetto",
  "EncyStruc": "Warthegau Region",
  "dropdown_EncyStruc": "Warthegau Region",
  "lat": 51.36667,
  "lng": 19.38333
 },
 {
  "SiteName": "Bełżyce",
  "SiteType": "Ghetto",
  "EncyStruc": "Lublin Region",
  "dropdown_EncyStruc": "Lublin Region",
  "lat": 51.17403,
  "lng": 22.28025
 },
 {
  "SiteName": "Biała Podlaska",
  "SiteType": "Ghetto",
  "EncyStruc": "Lublin Region",
  "dropdown_EncyStruc": "Lublin Region",
  "lat": 52.03333,
  "lng": 23.11667
 },
 {
  "SiteName": "Biała Rawska",
  "SiteType": "Ghetto",
  "EncyStruc": "Radom Region",
  "dropdown_EncyStruc": "Radom Region",
  "lat": 51.8,
  "lng": 20.46667
 },
 {
  "SiteName": "Białaczów",
  "SiteType": "Ghetto",
  "EncyStruc": "Radom Region",
  "dropdown_EncyStruc": "Radom Region",
  "lat": 51.29819,
  "lng": 20.29651
 },
 {
  "SiteName": "Białobrzegi",
  "SiteType": "Ghetto",
  "EncyStruc": "Radom Region",
  "dropdown_EncyStruc": "Radom Region",
  "lat": 51.65,
  "lng": 20.95
 },
 {
  "SiteName": "Białystok",
  "SiteType": "Ghetto",
  "EncyStruc": "Białystok Region",
  "dropdown_EncyStruc": "Białystok Region",
  "lat": 53.1373,
  "lng": 23.16028
 },
 {
  "SiteName": "Biecz",
  "SiteType": "Ghetto",
  "EncyStruc": "Kraków Region",
  "dropdown_EncyStruc": "Kraków Region",
  "lat": 49.73557,
  "lng": 21.26329
 },
 {
  "SiteName": "Bielsk Podlaski",
  "SiteType": "Ghetto",
  "EncyStruc": "Białystok Region",
  "dropdown_EncyStruc": "Białystok Region",
  "lat": 52.76505,
  "lng": 23.18675
 },
 {
  "SiteName": "Bielsko-Biała",
  "SiteType": "Ghetto",
  "EncyStruc": "Eastern Upper Silesia Region",
  "dropdown_EncyStruc": "Eastern Upper Silesia Region",
  "lat": 49.81498,
  "lng": 19.07684
 },
 {
  "SiteName": "Biesenthal",
  "SiteType": "Subcamp",
  "EncyStruc": "Sachsenhausen",
  "dropdown_EncyStruc": "Sachsenhausen",
  "lat": 52.76299,
  "lng": 13.64745
 },
 {
  "SiteName": "Biesnitzer Grund",
  "SiteType": "Subcamp",
  "EncyStruc": "Gross-Rosen",
  "dropdown_EncyStruc": "Gross-Rosen",
  "lat": 51.14283,
  "lng": 14.96369
 },
 {
  "SiteName": "Billroda",
  "SiteType": "Subcamp",
  "EncyStruc": "Buchenwald",
  "dropdown_EncyStruc": "Buchenwald",
  "lat": 51.2015,
  "lng": 11.45227
 },
 {
  "SiteName": "Bircza",
  "SiteType": "Ghetto",
  "EncyStruc": "Kraków Region",
  "dropdown_EncyStruc": "Kraków Region",
  "lat": 49.69198,
  "lng": 22.48004
 },
 {
  "SiteName": "Birnbäumel",
  "SiteType": "Subcamp",
  "EncyStruc": "Gross-Rosen",
  "dropdown_EncyStruc": "Gross-Rosen",
  "lat": 51.47775,
  "lng": 17.16678
 },
 {
  "SiteName": "Birzula",
  "SiteType": "Ghetto",
  "EncyStruc": "Romania",
  "dropdown_EncyStruc": "Romania",
  "lat": 47.75,
  "lng": 29.53333
 },
 {
  "SiteName": "Biržai",
  "SiteType": "Ghetto",
  "EncyStruc": "Lithuania Region",
  "dropdown_EncyStruc": "Lithuania Region",
  "lat": 56.2,
  "lng": 24.75
 },
 {
  "SiteName": "Bisingen",
  "SiteType": "Subcamp",
  "EncyStruc": "Natzweiler-Struthof",
  "dropdown_EncyStruc": "Natzweiler-Struthof",
  "lat": 48.32912,
  "lng": 8.91933
 },
 {
  "SiteName": "Bismarckhütte",
  "SiteType": "Subcamp",
  "EncyStruc": "Auschwitz",
  "dropdown_EncyStruc": "Auschwitz",
  "lat": 50.26558,
  "lng": 18.9364
 },
 {
  "SiteName": "Biłgoraj",
  "SiteType": "Ghetto",
  "EncyStruc": "Lublin Region",
  "dropdown_EncyStruc": "Lublin Region",
  "lat": 50.53686,
  "lng": 22.72152
 },
 {
  "SiteName": "Blaichach",
  "SiteType": "Subcamp",
  "EncyStruc": "Dachau",
  "dropdown_EncyStruc": "Dachau",
  "lat": 47.54295,
  "lng": 10.25946
 },
 {
  "SiteName": "Blankenburg-Oesig ",
  "SiteType": "Subcamp",
  "EncyStruc": "Mittelbau",
  "dropdown_EncyStruc": "Mittelbau",
  "lat": 51.79956,
  "lng": 10.93752
 },
 {
  "SiteName": "Blankenburg-Regenstein ",
  "SiteType": "Subcamp",
  "EncyStruc": "Mittelbau",
  "dropdown_EncyStruc": "Mittelbau",
  "lat": 51.80882,
  "lng": 10.97735
 },
 {
  "SiteName": "Blechhammer",
  "SiteType": "Subcamp",
  "EncyStruc": "Auschwitz",
  "dropdown_EncyStruc": "Auschwitz",
  "lat": 50.36192,
  "lng": 18.2774
 },
 {
  "SiteName": "Bleicherode",
  "SiteType": "Subcamp",
  "EncyStruc": "Mittelbau",
  "dropdown_EncyStruc": "Mittelbau",
  "lat": 51.4422,
  "lng": 10.57735
 },
 {
  "SiteName": "Bliżyn",
  "SiteType": "Ghetto",
  "EncyStruc": "Radom Region",
  "dropdown_EncyStruc": "Radom Region",
  "lat": 51.10889,
  "lng": 20.76333
 },
 {
  "SiteName": "Bobowa",
  "SiteType": "Ghetto",
  "EncyStruc": "Kraków Region",
  "dropdown_EncyStruc": "Kraków Region",
  "lat": 49.70811,
  "lng": 20.94286
 },
 {
  "SiteName": "Bobrek",
  "SiteType": "Subcamp",
  "EncyStruc": "Auschwitz",
  "dropdown_EncyStruc": "Auschwitz",
  "lat": 50.06545,
  "lng": 19.23691
 },
 {
  "SiteName": "Bobric",
  "SiteType": "Camp",
  "EncyStruc": "Romania",
  "dropdown_EncyStruc": "Romania",
  "lat": 47.9,
  "lng": 30.18333
 },
 {
  "SiteName": "Bobrinets",
  "SiteType": "Ghetto",
  "EncyStruc": "Nikolaev and Dnepropetrovsk Regions",
  "dropdown_EncyStruc": "Nikolaev and Dnepropetrovsk Regions",
  "lat": 48.05,
  "lng": 32.15
 },
 {
  "SiteName": "Bobruisk",
  "SiteType": "Ghetto",
  "EncyStruc": "Eastern Belorussia Region",
  "dropdown_EncyStruc": "Eastern Belorussia Region",
  "lat": 53.15,
  "lng": 29.23333
 },
 {
  "SiteName": "Bobynichi",
  "SiteType": "Ghetto",
  "EncyStruc": "Eastern Belorussia Region",
  "dropdown_EncyStruc": "Eastern Belorussia Region",
  "lat": 55.28223,
  "lng": 28.41051
 },
 {
  "SiteName": "Bochnia",
  "SiteType": "Ghetto",
  "EncyStruc": "Kraków Region",
  "dropdown_EncyStruc": "Kraków Region",
  "lat": 49.96667,
  "lng": 20.43333
 },
 {
  "SiteName": "Bochum",
  "SiteType": "Subcamp",
  "EncyStruc": "Early camps",
  "dropdown_EncyStruc": "Early camps",
  "lat": 51.41893,
  "lng": 7.24671
 },
 {
  "SiteName": "Bochum Bochumer Verein",
  "SiteType": "Subcamp",
  "EncyStruc": "Buchenwald",
  "dropdown_EncyStruc": "Buchenwald",
  "lat": 51.46972,
  "lng": 7.19124
 },
 {
  "SiteName": "Bochum Eisen- und Hüttenwerke",
  "SiteType": "Subcamp",
  "EncyStruc": "Buchenwald",
  "dropdown_EncyStruc": "Buchenwald",
  "lat": 51.4883,
  "lng": 7.23172
 },
 {
  "SiteName": "Bochum Sprengkommando SS-BB III",
  "SiteType": "Subcamp",
  "EncyStruc": "SS-Baubrigaden & SS-Eisenbahnbaubrigaden",
  "dropdown_EncyStruc": "SS-Baubrigaden & SS-Eisenbahnbaubrigaden",
  "lat": 51.48103,
  "lng": 7.21831
 },
 {
  "SiteName": "Bodzentyn",
  "SiteType": "Ghetto",
  "EncyStruc": "Radom Region",
  "dropdown_EncyStruc": "Radom Region",
  "lat": 50.94107,
  "lng": 20.95725
 },
 {
  "SiteName": "Bogdanovca",
  "SiteType": "Camp",
  "EncyStruc": "Romania",
  "dropdown_EncyStruc": "Romania",
  "lat": 47.81706,
  "lng": 31.1305
 },
 {
  "SiteName": "Boghar",
  "SiteType": "Camp",
  "EncyStruc": "Vichy Africa",
  "dropdown_EncyStruc": "Vichy Africa",
  "lat": 35.91156,
  "lng": 2.71314
 },
 {
  "SiteName": "Boghari",
  "SiteType": "Camp",
  "EncyStruc": "Vichy Africa",
  "dropdown_EncyStruc": "Vichy Africa",
  "lat": 35.8858,
  "lng": 2.75194
 },
 {
  "SiteName": "Bogodukhov",
  "SiteType": "Ghetto",
  "EncyStruc": "Eastern Ukraine and Crimea Region",
  "dropdown_EncyStruc": "Eastern Ukraine and Crimea Region",
  "lat": 50.16083,
  "lng": 35.51667
 },
 {
  "SiteName": "Bogoria",
  "SiteType": "Ghetto",
  "EncyStruc": "Radom Region",
  "dropdown_EncyStruc": "Radom Region",
  "lat": 50.65147,
  "lng": 21.2603
 },
 {
  "SiteName": "Bogushevichi",
  "SiteType": "Ghetto",
  "EncyStruc": "Eastern Belorussia Region",
  "dropdown_EncyStruc": "Eastern Belorussia Region",
  "lat": 53.70503,
  "lng": 28.82159
 },
 {
  "SiteName": "Boguslav",
  "SiteType": "Ghetto",
  "EncyStruc": "Kiev Region",
  "dropdown_EncyStruc": "Kiev Region",
  "lat": 49.55,
  "lng": 30.88333
 },
 {
  "SiteName": "Bohnsack",
  "SiteType": "Subcamp",
  "EncyStruc": "Stutthof",
  "dropdown_EncyStruc": "Stutthof",
  "lat": 54.34995,
  "lng": 18.83324
 },
 {
  "SiteName": "Boiano",
  "SiteType": "Camp",
  "EncyStruc": "Italy",
  "dropdown_EncyStruc": "Italy",
  "lat": 41.48208,
  "lng": 14.47369
 },
 {
  "SiteName": "Boizenburg",
  "SiteType": "Subcamp",
  "EncyStruc": "Neuengamme",
  "dropdown_EncyStruc": "Neuengamme",
  "lat": 53.37507,
  "lng": 10.69833
 },
 {
  "SiteName": "Bojková",
  "SiteType": "Camp",
  "EncyStruc": "Slovakia",
  "dropdown_EncyStruc": "Slovakia",
  "lat": 48.57231,
  "lng": 17.43722
 },
 {
  "SiteName": "Bolechów",
  "SiteType": "Ghetto",
  "EncyStruc": "Eastern Galicia Region",
  "dropdown_EncyStruc": "Eastern Galicia Region",
  "lat": 49.06667,
  "lng": 23.86667
 },
 {
  "SiteName": "Bolgrad",
  "SiteType": "Ghetto",
  "EncyStruc": "Romania",
  "dropdown_EncyStruc": "Romania",
  "lat": 45.66722,
  "lng": 28.61278
 },
 {
  "SiteName": "Bolgrad / LPRS No. 8",
  "SiteType": "Camp",
  "EncyStruc": "Romania",
  "dropdown_EncyStruc": "Romania",
  "lat": 45.69206,
  "lng": 28.60871
 },
 {
  "SiteName": "Bolimów",
  "SiteType": "Ghetto",
  "EncyStruc": "Warsaw Region",
  "dropdown_EncyStruc": "Warsaw Region",
  "lat": 52.07639,
  "lng": 20.16358
 },
 {
  "SiteName": "Bolkenhain",
  "SiteType": "Subcamp",
  "EncyStruc": "Gross-Rosen",
  "dropdown_EncyStruc": "Gross-Rosen",
  "lat": 50.92616,
  "lng": 16.11085
 },
 {
  "SiteName": "Bomlitz [aka Benefeld]",
  "SiteType": "Subcamp",
  "EncyStruc": "Bergen-Belsen",
  "dropdown_EncyStruc": "Bergen-Belsen",
  "lat": 52.89508,
  "lng": 9.63295
 },
 {
  "SiteName": "Bondurovca",
  "SiteType": "Ghetto",
  "EncyStruc": "Romania",
  "dropdown_EncyStruc": "Romania",
  "lat": 48.30493,
  "lng": 29.22175
 },
 {
  "SiteName": "Bor",
  "SiteType": "Camp",
  "EncyStruc": "Hungary",
  "dropdown_EncyStruc": "Hungary",
  "lat": 44.075,
  "lng": 22.09583
 },
 {
  "SiteName": "Boremel",
  "SiteType": "Ghetto",
  "EncyStruc": "Volhynia and Podolia Region",
  "dropdown_EncyStruc": "Volhynia and Podolia Region",
  "lat": 50.46847,
  "lng": 25.19596
 },
 {
  "SiteName": "Borgo San Dalmazzo",
  "SiteType": "Camp",
  "EncyStruc": "Italy",
  "dropdown_EncyStruc": "Italy",
  "lat": 44.33,
  "lng": 7.48417
 },
 {
  "SiteName": "Borisov",
  "SiteType": "Ghetto",
  "EncyStruc": "Eastern Belorussia Region",
  "dropdown_EncyStruc": "Eastern Belorussia Region",
  "lat": 54.2244,
  "lng": 28.51191
 },
 {
  "SiteName": "Born",
  "SiteType": "Subcamp",
  "EncyStruc": "Ravensbrück",
  "dropdown_EncyStruc": "Ravensbrück",
  "lat": 54.38304,
  "lng": 12.52696
 },
 {
  "SiteName": "Borovukha",
  "SiteType": "Ghetto",
  "EncyStruc": "Eastern Belorussia Region",
  "dropdown_EncyStruc": "Eastern Belorussia Region",
  "lat": 55.59046,
  "lng": 28.59128
 },
 {
  "SiteName": "Borszczów",
  "SiteType": "Ghetto",
  "EncyStruc": "Eastern Galicia Region",
  "dropdown_EncyStruc": "Eastern Galicia Region",
  "lat": 48.8,
  "lng": 26.05
 },
 {
  "SiteName": "Borysław",
  "SiteType": "Ghetto",
  "EncyStruc": "Eastern Galicia Region",
  "dropdown_EncyStruc": "Eastern Galicia Region",
  "lat": 49.28333,
  "lng": 23.41667
 },
 {
  "SiteName": "Borzna",
  "SiteType": "Ghetto",
  "EncyStruc": "Eastern Ukraine and Crimea Region",
  "dropdown_EncyStruc": "Eastern Ukraine and Crimea Region",
  "lat": 51.25,
  "lng": 32.43333
 },
 {
  "SiteName": "Bossuet",
  "SiteType": "Camp",
  "EncyStruc": "Vichy Africa",
  "dropdown_EncyStruc": "Vichy Africa",
  "lat": 34.68306,
  "lng": -0.61937
 },
 {
  "SiteName": "Bou Arfa",
  "SiteType": "Camp",
  "EncyStruc": "Vichy Africa",
  "dropdown_EncyStruc": "Vichy Africa",
  "lat": 32.52735,
  "lng": -1.97393
 },
 {
  "SiteName": "Bou Azzer",
  "SiteType": "Camp",
  "EncyStruc": "Vichy Africa",
  "dropdown_EncyStruc": "Vichy Africa",
  "lat": 33.22896,
  "lng": -6.19427
 },
 {
  "SiteName": "Bou Denib",
  "SiteType": "Camp",
  "EncyStruc": "Vichy Africa",
  "dropdown_EncyStruc": "Vichy Africa",
  "lat": 31.94949,
  "lng": -3.60933
 },
 {
  "SiteName": "Boulhaut",
  "SiteType": "Camp",
  "EncyStruc": "Vichy Africa",
  "dropdown_EncyStruc": "Vichy Africa",
  "lat": 33.61737,
  "lng": -7.13066
 },
 {
  "SiteName": "Boussais",
  "SiteType": "Camp",
  "EncyStruc": "France/Vichy",
  "dropdown_EncyStruc": "France/Vichy",
  "lat": 46.82944,
  "lng": 0.24771
 },
 {
  "SiteName": "Boćki",
  "SiteType": "Ghetto",
  "EncyStruc": "Białystok Region",
  "dropdown_EncyStruc": "Białystok Region",
  "lat": 52.6515,
  "lng": 23.04472
 },
 {
  "SiteName": "Brailov",
  "SiteType": "Ghetto",
  "EncyStruc": "Zhytomyr Region",
  "dropdown_EncyStruc": "Zhytomyr Region",
  "lat": 49.1,
  "lng": 28.16667
 },
 {
  "SiteName": "Bram",
  "SiteType": "Camp",
  "EncyStruc": "France/Vichy",
  "dropdown_EncyStruc": "France/Vichy",
  "lat": 43.24472,
  "lng": 2.11412
 },
 {
  "SiteName": "Brandenburg Havel",
  "SiteType": "Subcamp",
  "EncyStruc": "Sachsenhausen",
  "dropdown_EncyStruc": "Sachsenhausen",
  "lat": 52.41389,
  "lng": 12.55348
 },
 {
  "SiteName": "Brandenburg an der Havel",
  "SiteType": "Subcamp",
  "EncyStruc": "Early camps",
  "dropdown_EncyStruc": "Early camps",
  "lat": 52.41173,
  "lng": 12.54959
 },
 {
  "SiteName": "Braniţa-Moghilev",
  "SiteType": "Camp",
  "EncyStruc": "Romania",
  "dropdown_EncyStruc": "Romania",
  "lat": 48.40222,
  "lng": 27.89056
 },
 {
  "SiteName": "Brasław",
  "SiteType": "Ghetto",
  "EncyStruc": "Weissruthenien Region",
  "dropdown_EncyStruc": "Weissruthenien Region",
  "lat": 55.63333,
  "lng": 27.05
 },
 {
  "SiteName": "Bratislava/Patrónka",
  "SiteType": "Camp",
  "EncyStruc": "Slovakia",
  "dropdown_EncyStruc": "Slovakia",
  "lat": 48.16903,
  "lng": 17.07614
 },
 {
  "SiteName": "Braunschweig",
  "SiteType": "Subcamp",
  "EncyStruc": "Buchenwald",
  "dropdown_EncyStruc": "Buchenwald",
  "lat": 52.26379,
  "lng": 10.52684
 },
 {
  "SiteName": "Braunschweig Büssing NAG",
  "SiteType": "Subcamp",
  "EncyStruc": "Neuengamme",
  "dropdown_EncyStruc": "Neuengamme",
  "lat": 52.25664,
  "lng": 10.54176
 },
 {
  "SiteName": "Braunschweig SS-Reitschule",
  "SiteType": "Subcamp",
  "EncyStruc": "Neuengamme",
  "dropdown_EncyStruc": "Neuengamme",
  "lat": 52.24185,
  "lng": 10.54148
 },
 {
  "SiteName": "Braunschweig Truppenwirtschaftslager",
  "SiteType": "Subcamp",
  "EncyStruc": "Neuengamme",
  "dropdown_EncyStruc": "Neuengamme",
  "lat": 52.26405,
  "lng": 10.52636
 },
 {
  "SiteName": "Brauweiler",
  "SiteType": "Subcamp",
  "EncyStruc": "Early camps",
  "dropdown_EncyStruc": "Early camps",
  "lat": 49.86747,
  "lng": 7.74765
 },
 {
  "SiteName": "Brazza Island",
  "SiteType": "Camp",
  "EncyStruc": "Italian-occupied Yugoslavia",
  "dropdown_EncyStruc": "Italian-occupied Yugoslavia",
  "lat": 43.32,
  "lng": 16.63722
 },
 {
  "SiteName": "Brańsk",
  "SiteType": "Ghetto",
  "EncyStruc": "Białystok Region",
  "dropdown_EncyStruc": "Białystok Region",
  "lat": 52.74336,
  "lng": 22.8413
 },
 {
  "SiteName": "Bredtveit",
  "SiteType": "Camp",
  "EncyStruc": "Norway",
  "dropdown_EncyStruc": "Norway",
  "lat": 59.94675,
  "lng": 10.85922
 },
 {
  "SiteName": "Breitenau",
  "SiteType": "Subcamp",
  "EncyStruc": "Early camps",
  "dropdown_EncyStruc": "Early camps",
  "lat": 51.20195,
  "lng": 9.47533
 },
 {
  "SiteName": "Bremen Borgward-Werke",
  "SiteType": "Subcamp",
  "EncyStruc": "Neuengamme",
  "dropdown_EncyStruc": "Neuengamme",
  "lat": 53.06202,
  "lng": 8.87551
 },
 {
  "SiteName": "Bremen Hindenburgkaserne",
  "SiteType": "Subcamp",
  "EncyStruc": "Neuengamme",
  "dropdown_EncyStruc": "Neuengamme",
  "lat": 53.0533,
  "lng": 8.8191
 },
 {
  "SiteName": "Bremen SS-BB II",
  "SiteType": "Subcamp",
  "EncyStruc": "SS-Baubrigaden & SS-Eisenbahnbaubrigaden",
  "dropdown_EncyStruc": "SS-Baubrigaden & SS-Eisenbahnbaubrigaden",
  "lat": 53.05322,
  "lng": 8.81876
 },
 {
  "SiteName": "Bremen-Blumenthal",
  "SiteType": "Subcamp",
  "EncyStruc": "Neuengamme",
  "dropdown_EncyStruc": "Neuengamme",
  "lat": 53.18241,
  "lng": 8.56386
 },
 {
  "SiteName": "Bremen-Farge",
  "SiteType": "Subcamp",
  "EncyStruc": "Neuengamme",
  "dropdown_EncyStruc": "Neuengamme",
  "lat": 53.22118,
  "lng": 8.51724
 },
 {
  "SiteName": "Bremen-Neuenland",
  "SiteType": "Subcamp",
  "EncyStruc": "Neuengamme",
  "dropdown_EncyStruc": "Neuengamme",
  "lat": 53.05826,
  "lng": 8.79352
 },
 {
  "SiteName": "Bremen-Obernheide",
  "SiteType": "Subcamp",
  "EncyStruc": "Neuengamme",
  "dropdown_EncyStruc": "Neuengamme",
  "lat": 53.00096,
  "lng": 8.74509
 },
 {
  "SiteName": "Bremen-Osterort",
  "SiteType": "Subcamp",
  "EncyStruc": "Neuengamme",
  "dropdown_EncyStruc": "Neuengamme",
  "lat": 53.12804,
  "lng": 8.71096
 },
 {
  "SiteName": "Bremen-Schützenhof",
  "SiteType": "Subcamp",
  "EncyStruc": "Neuengamme",
  "dropdown_EncyStruc": "Neuengamme",
  "lat": 53.11864,
  "lng": 8.76752
 },
 {
  "SiteName": "Bremen-Uphusen Behelfswohnbau",
  "SiteType": "Subcamp",
  "EncyStruc": "Neuengamme",
  "dropdown_EncyStruc": "Neuengamme",
  "lat": 53.02719,
  "lng": 8.97977
 },
 {
  "SiteName": "Bremen-Vegesack",
  "SiteType": "Subcamp",
  "EncyStruc": "Neuengamme",
  "dropdown_EncyStruc": "Neuengamme",
  "lat": 53.17989,
  "lng": 8.63715
 },
 {
  "SiteName": "Brens",
  "SiteType": "Camp",
  "EncyStruc": "France/Vichy",
  "dropdown_EncyStruc": "France/Vichy",
  "lat": 43.88992,
  "lng": 1.91019
 },
 {
  "SiteName": "Breslau I",
  "SiteType": "Subcamp",
  "EncyStruc": "Gross-Rosen",
  "dropdown_EncyStruc": "Gross-Rosen",
  "lat": 51.10506,
  "lng": 17.03439
 },
 {
  "SiteName": "Breslau II",
  "SiteType": "Subcamp",
  "EncyStruc": "Gross-Rosen",
  "dropdown_EncyStruc": "Gross-Rosen",
  "lat": 51.10871,
  "lng": 17.0366
 },
 {
  "SiteName": "Breslau-Dürrgoy",
  "SiteType": "Subcamp",
  "EncyStruc": "Early camps",
  "dropdown_EncyStruc": "Early camps",
  "lat": 51.07263,
  "lng": 17.0517
 },
 {
  "SiteName": "Breslau-Hundsfeld",
  "SiteType": "Subcamp",
  "EncyStruc": "Gross-Rosen",
  "dropdown_EncyStruc": "Gross-Rosen",
  "lat": 51.14589,
  "lng": 17.0356
 },
 {
  "SiteName": "Breslau-Lissa",
  "SiteType": "Subcamp",
  "EncyStruc": "Gross-Rosen",
  "dropdown_EncyStruc": "Gross-Rosen",
  "lat": 51.14767,
  "lng": 16.86028
 },
 {
  "SiteName": "Bretstein",
  "SiteType": "Subcamp",
  "EncyStruc": "Mauthausen",
  "dropdown_EncyStruc": "Mauthausen",
  "lat": 47.36344,
  "lng": 14.35847
 },
 {
  "SiteName": "Brieg",
  "SiteType": "Subcamp",
  "EncyStruc": "Gross-Rosen",
  "dropdown_EncyStruc": "Gross-Rosen",
  "lat": 50.8186,
  "lng": 17.43052
 },
 {
  "SiteName": "Briesen",
  "SiteType": "Subcamp",
  "EncyStruc": "Sachsenhausen",
  "dropdown_EncyStruc": "Sachsenhausen",
  "lat": 52.39231,
  "lng": 14.32707
 },
 {
  "SiteName": "Brody",
  "SiteType": "Ghetto",
  "EncyStruc": "Eastern Galicia Region",
  "dropdown_EncyStruc": "Eastern Galicia Region",
  "lat": 50.08333,
  "lng": 25.15
 },
 {
  "SiteName": "Bromberg-Brahnau DAG Nobel",
  "SiteType": "Subcamp",
  "EncyStruc": "Stutthof",
  "dropdown_EncyStruc": "Stutthof",
  "lat": 53.0829,
  "lng": 18.07339
 },
 {
  "SiteName": "Bromberg-Ost Reichsbahn",
  "SiteType": "Subcamp",
  "EncyStruc": "Stutthof",
  "dropdown_EncyStruc": "Stutthof",
  "lat": 53.12801,
  "lng": 18.08349
 },
 {
  "SiteName": "Bruss-Sophienwalde",
  "SiteType": "Subcamp",
  "EncyStruc": "Stutthof",
  "dropdown_EncyStruc": "Stutthof",
  "lat": 54.01049,
  "lng": 17.77359
 },
 {
  "SiteName": "Brzesko",
  "SiteType": "Ghetto",
  "EncyStruc": "Kraków Region",
  "dropdown_EncyStruc": "Kraków Region",
  "lat": 49.96667,
  "lng": 20.61667
 },
 {
  "SiteName": "Brzeziny",
  "SiteType": "Ghetto",
  "EncyStruc": "Warthegau Region",
  "dropdown_EncyStruc": "Warthegau Region",
  "lat": 51.8,
  "lng": 19.75
 },
 {
  "SiteName": "Brześć",
  "SiteType": "Ghetto",
  "EncyStruc": "Volhynia and Podolia Region",
  "dropdown_EncyStruc": "Volhynia and Podolia Region",
  "lat": 52.09968,
  "lng": 23.76375
 },
 {
  "SiteName": "Brześć Kujawski",
  "SiteType": "Ghetto",
  "EncyStruc": "Warthegau Region",
  "dropdown_EncyStruc": "Warthegau Region",
  "lat": 52.60624,
  "lng": 18.9013
 },
 {
  "SiteName": "Brzeźany",
  "SiteType": "Ghetto",
  "EncyStruc": "Eastern Galicia Region",
  "dropdown_EncyStruc": "Eastern Galicia Region",
  "lat": 49.44583,
  "lng": 24.93611
 },
 {
  "SiteName": "Brzostek",
  "SiteType": "Ghetto",
  "EncyStruc": "Kraków Region",
  "dropdown_EncyStruc": "Kraków Region",
  "lat": 49.88333,
  "lng": 21.41667
 },
 {
  "SiteName": "Brzozów",
  "SiteType": "Ghetto",
  "EncyStruc": "Kraków Region",
  "dropdown_EncyStruc": "Kraków Region",
  "lat": 49.7,
  "lng": 22.01667
 },
 {
  "SiteName": "Brünn",
  "SiteType": "Subcamp",
  "EncyStruc": "Auschwitz",
  "dropdown_EncyStruc": "Auschwitz",
  "lat": 49.20262,
  "lng": 16.57298
 },
 {
  "SiteName": "Brünnlitz",
  "SiteType": "Subcamp",
  "EncyStruc": "Gross-Rosen",
  "dropdown_EncyStruc": "Gross-Rosen",
  "lat": 49.62747,
  "lng": 16.52413
 },
 {
  "SiteName": "Brüx",
  "SiteType": "Subcamp",
  "EncyStruc": "Flossenbürg",
  "dropdown_EncyStruc": "Flossenbürg",
  "lat": 50.54272,
  "lng": 13.52984
 },
 {
  "SiteName": "Buccari",
  "SiteType": "Camp",
  "EncyStruc": "Italian-occupied Yugoslavia",
  "dropdown_EncyStruc": "Italian-occupied Yugoslavia",
  "lat": 45.30681,
  "lng": 14.53425
 },
 {
  "SiteName": "Buchenwald",
  "SiteType": "Main camp",
  "EncyStruc": "Buchenwald",
  "dropdown_EncyStruc": "Buchenwald",
  "lat": 51.02151,
  "lng": 11.24924
 },
 {
  "SiteName": "Bucuresti / LPRA No. 12 and No. 13",
  "SiteType": "Camp",
  "EncyStruc": "Romania",
  "dropdown_EncyStruc": "Romania",
  "lat": 44.43772,
  "lng": 26.09736
 },
 {
  "SiteName": "Buczacz",
  "SiteType": "Ghetto",
  "EncyStruc": "Eastern Galicia Region",
  "dropdown_EncyStruc": "Eastern Galicia Region",
  "lat": 49.0645,
  "lng": 25.38386
 },
 {
  "SiteName": "Buda-Koshelevo",
  "SiteType": "Ghetto",
  "EncyStruc": "Eastern Belorussia Region",
  "dropdown_EncyStruc": "Eastern Belorussia Region",
  "lat": 52.71667,
  "lng": 30.56667
 },
 {
  "SiteName": "Budafok",
  "SiteType": "Ghetto",
  "EncyStruc": "Hungary",
  "dropdown_EncyStruc": "Hungary",
  "lat": 47.42753,
  "lng": 19.02406
 },
 {
  "SiteName": "Budakalász",
  "SiteType": "Ghetto",
  "EncyStruc": "Hungary",
  "dropdown_EncyStruc": "Hungary",
  "lat": 47.62128,
  "lng": 19.05086
 },
 {
  "SiteName": "Budapest",
  "SiteType": "Ghetto",
  "EncyStruc": "Hungary",
  "dropdown_EncyStruc": "Hungary",
  "lat": 47.49778,
  "lng": 19.03972
 },
 {
  "SiteName": "Budapest / Columbus Street",
  "SiteType": "Camp",
  "EncyStruc": "Hungary",
  "dropdown_EncyStruc": "Hungary",
  "lat": 47.51575,
  "lng": 19.09828
 },
 {
  "SiteName": "Budapest / Conti Street Prison",
  "SiteType": "Camp",
  "EncyStruc": "Hungary",
  "dropdown_EncyStruc": "Hungary",
  "lat": 47.49789,
  "lng": 19.04022
 },
 {
  "SiteName": "Budapest / KISOK",
  "SiteType": "Camp",
  "EncyStruc": "Hungary",
  "dropdown_EncyStruc": "Hungary",
  "lat": 47.52689,
  "lng": 19.10567
 },
 {
  "SiteName": "Budapest / Magdolna Street",
  "SiteType": "Camp",
  "EncyStruc": "Hungary",
  "dropdown_EncyStruc": "Hungary",
  "lat": 47.49008,
  "lng": 19.08153
 },
 {
  "SiteName": "Budapest / Margit Boulevard",
  "SiteType": "Camp",
  "EncyStruc": "Hungary",
  "dropdown_EncyStruc": "Hungary",
  "lat": 47.51089,
  "lng": 19.03169
 },
 {
  "SiteName": "Budapest / Mosonyi Street",
  "SiteType": "Camp",
  "EncyStruc": "Hungary",
  "dropdown_EncyStruc": "Hungary",
  "lat": 47.49847,
  "lng": 19.08267
 },
 {
  "SiteName": "Budapest / Rökk-Szilárd Street",
  "SiteType": "Camp",
  "EncyStruc": "Hungary",
  "dropdown_EncyStruc": "Hungary",
  "lat": 47.49172,
  "lng": 19.07
 },
 {
  "SiteName": "Budapest / Tattersall",
  "SiteType": "Camp",
  "EncyStruc": "Hungary",
  "dropdown_EncyStruc": "Hungary",
  "lat": 47.49936,
  "lng": 19.08614
 },
 {
  "SiteName": "Budapest / Óbuda",
  "SiteType": "Camp",
  "EncyStruc": "Hungary",
  "dropdown_EncyStruc": "Hungary",
  "lat": 47.53944,
  "lng": 19.03856
 },
 {
  "SiteName": "Budeşti / LPRS No. 7 and No. 13",
  "SiteType": "Camp",
  "EncyStruc": "Romania",
  "dropdown_EncyStruc": "Romania",
  "lat": 44.232,
  "lng": 26.461
 },
 {
  "SiteName": "Budi",
  "SiteType": "Ghetto",
  "EncyStruc": "Romania",
  "dropdown_EncyStruc": "Romania",
  "lat": 48.05,
  "lng": 29.26667
 },
 {
  "SiteName": "Budsław",
  "SiteType": "Ghetto",
  "EncyStruc": "Weissruthenien Region",
  "dropdown_EncyStruc": "Weissruthenien Region",
  "lat": 54.78333,
  "lng": 27.45
 },
 {
  "SiteName": "Budy",
  "SiteType": "Subcamp",
  "EncyStruc": "Auschwitz",
  "dropdown_EncyStruc": "Auschwitz",
  "lat": 50.00457,
  "lng": 19.16304
 },
 {
  "SiteName": "Budzyń",
  "SiteType": "Subcamp",
  "EncyStruc": "Lublin",
  "dropdown_EncyStruc": "Lublin",
  "lat": 50.95995,
  "lng": 22.16219
 },
 {
  "SiteName": "Bugaj (and Nowiny Brdowskie)",
  "SiteType": "Ghetto",
  "EncyStruc": "Warthegau Region",
  "dropdown_EncyStruc": "Warthegau Region",
  "lat": 52.3415,
  "lng": 18.71282
 },
 {
  "SiteName": "Bukaczowce",
  "SiteType": "Ghetto",
  "EncyStruc": "Eastern Galicia Region",
  "dropdown_EncyStruc": "Eastern Galicia Region",
  "lat": 49.25,
  "lng": 24.5
 },
 {
  "SiteName": "Buki",
  "SiteType": "Ghetto",
  "EncyStruc": "Kiev Region",
  "dropdown_EncyStruc": "Kiev Region",
  "lat": 49.09401,
  "lng": 30.40543
 },
 {
  "SiteName": "Bunzlau I",
  "SiteType": "Subcamp",
  "EncyStruc": "Gross-Rosen",
  "dropdown_EncyStruc": "Gross-Rosen",
  "lat": 51.26275,
  "lng": 15.57724
 },
 {
  "SiteName": "Bunzlau II",
  "SiteType": "Subcamp",
  "EncyStruc": "Gross-Rosen",
  "dropdown_EncyStruc": "Gross-Rosen",
  "lat": 51.26308,
  "lng": 15.55516
 },
 {
  "SiteName": "Buqbuq",
  "SiteType": "Camp",
  "EncyStruc": "Italian-occupied North Africa",
  "dropdown_EncyStruc": "Italian-occupied North Africa",
  "lat": 31.51081,
  "lng": 25.53425
 },
 {
  "SiteName": "Burgau",
  "SiteType": "Subcamp",
  "EncyStruc": "Dachau",
  "dropdown_EncyStruc": "Dachau",
  "lat": 48.43021,
  "lng": 10.40762
 },
 {
  "SiteName": "Bursztyn",
  "SiteType": "Ghetto",
  "EncyStruc": "Eastern Galicia Region",
  "dropdown_EncyStruc": "Eastern Galicia Region",
  "lat": 49.26667,
  "lng": 24.63333
 },
 {
  "SiteName": "Busk",
  "SiteType": "Ghetto",
  "EncyStruc": "Eastern Galicia Region",
  "dropdown_EncyStruc": "Eastern Galicia Region",
  "lat": 49.96606,
  "lng": 24.61373
 },
 {
  "SiteName": "Busko-Zdrój",
  "SiteType": "Ghetto",
  "EncyStruc": "Radom Region",
  "dropdown_EncyStruc": "Radom Region",
  "lat": 50.46667,
  "lng": 20.71667
 },
 {
  "SiteName": "Butrimonys",
  "SiteType": "Ghetto",
  "EncyStruc": "Lithuania Region",
  "dropdown_EncyStruc": "Lithuania Region",
  "lat": 54.5,
  "lng": 24.25
 },
 {
  "SiteName": "Buttelstedt",
  "SiteType": "Subcamp",
  "EncyStruc": "Buchenwald",
  "dropdown_EncyStruc": "Buchenwald",
  "lat": 51.07674,
  "lng": 11.34738
 },
 {
  "SiteName": "Buzet-sur-Baïze",
  "SiteType": "Camp",
  "EncyStruc": "France/Vichy",
  "dropdown_EncyStruc": "France/Vichy",
  "lat": 44.25806,
  "lng": 0.29819
 },
 {
  "SiteName": "Bychawa",
  "SiteType": "Ghetto",
  "EncyStruc": "Lublin Region",
  "dropdown_EncyStruc": "Lublin Region",
  "lat": 51.016,
  "lng": 22.533
 },
 {
  "SiteName": "Bykhov",
  "SiteType": "Ghetto",
  "EncyStruc": "Eastern Belorussia Region",
  "dropdown_EncyStruc": "Eastern Belorussia Region",
  "lat": 53.51667,
  "lng": 30.25
 },
 {
  "SiteName": "Bystrzyca",
  "SiteType": "Ghetto",
  "EncyStruc": "Lithuania Region",
  "dropdown_EncyStruc": "Lithuania Region",
  "lat": 54.8,
  "lng": 25.88333
 },
 {
  "SiteName": "Bystré",
  "SiteType": "Camp",
  "EncyStruc": "Slovakia",
  "dropdown_EncyStruc": "Slovakia",
  "lat": 49.00628,
  "lng": 21.54192
 },
 {
  "SiteName": "Byteń",
  "SiteType": "Ghetto",
  "EncyStruc": "Weissruthenien Region",
  "dropdown_EncyStruc": "Weissruthenien Region",
  "lat": 52.88333,
  "lng": 25.5
 },
 {
  "SiteName": "Bácsalmás",
  "SiteType": "Ghetto",
  "EncyStruc": "Hungary",
  "dropdown_EncyStruc": "Hungary",
  "lat": 46.12514,
  "lng": 19.33578
 },
 {
  "SiteName": "Bárdfalva",
  "SiteType": "Ghetto",
  "EncyStruc": "Hungary",
  "dropdown_EncyStruc": "Hungary",
  "lat": 47.84717,
  "lng": 23.92789
 },
 {
  "SiteName": "Bäumenheim",
  "SiteType": "Subcamp",
  "EncyStruc": "Dachau",
  "dropdown_EncyStruc": "Dachau",
  "lat": 48.6833,
  "lng": 10.8167
 },
 {
  "SiteName": "Békéscsaba",
  "SiteType": "Ghetto",
  "EncyStruc": "Hungary",
  "dropdown_EncyStruc": "Hungary",
  "lat": 46.67359,
  "lng": 21.08773
 },
 {
  "SiteName": "Béni Abbès",
  "SiteType": "Camp",
  "EncyStruc": "Vichy Africa",
  "dropdown_EncyStruc": "Vichy Africa",
  "lat": 30.13105,
  "lng": -2.16631
 },
 {
  "SiteName": "Bóbrka",
  "SiteType": "Ghetto",
  "EncyStruc": "Eastern Galicia Region",
  "dropdown_EncyStruc": "Eastern Galicia Region",
  "lat": 49.6376,
  "lng": 24.29462
 },
 {
  "SiteName": "Böhlen",
  "SiteType": "Subcamp",
  "EncyStruc": "Buchenwald",
  "dropdown_EncyStruc": "Buchenwald",
  "lat": 51.19852,
  "lng": 12.35544
 },
 {
  "SiteName": "Börgermoor",
  "SiteType": "Subcamp",
  "EncyStruc": "Early camps",
  "dropdown_EncyStruc": "Early camps",
  "lat": 53.00105,
  "lng": 7.49124
 },
 {
  "SiteName": "Börnicke",
  "SiteType": "Subcamp",
  "EncyStruc": "Early camps",
  "dropdown_EncyStruc": "Early camps",
  "lat": 52.69375,
  "lng": 12.93508
 },
 {
  "SiteName": "Bălţi / LPRS No. 7",
  "SiteType": "Camp",
  "EncyStruc": "Romania",
  "dropdown_EncyStruc": "Romania",
  "lat": 47.75494,
  "lng": 27.913
 },
 {
  "SiteName": "Bălţi / Răuţel",
  "SiteType": "Camp",
  "EncyStruc": "Romania",
  "dropdown_EncyStruc": "Romania",
  "lat": 47.72178,
  "lng": 27.82289
 },
 {
  "SiteName": "Będków",
  "SiteType": "Ghetto",
  "EncyStruc": "Radom Region",
  "dropdown_EncyStruc": "Radom Region",
  "lat": 51.58794,
  "lng": 19.74958
 },
 {
  "SiteName": "Będzin",
  "SiteType": "Ghetto",
  "EncyStruc": "Eastern Upper Silesia Region",
  "dropdown_EncyStruc": "Eastern Upper Silesia Region",
  "lat": 50.32504,
  "lng": 19.13135
 },
 {
  "SiteName": "Błażowa",
  "SiteType": "Ghetto",
  "EncyStruc": "Kraków Region",
  "dropdown_EncyStruc": "Kraków Region",
  "lat": 49.88564,
  "lng": 22.10275
 },
 {
  "SiteName": "Błonie",
  "SiteType": "Ghetto",
  "EncyStruc": "Warsaw Region",
  "dropdown_EncyStruc": "Warsaw Region",
  "lat": 52.1858,
  "lng": 20.61333
 },
 {
  "SiteName": "Błędów",
  "SiteType": "Ghetto",
  "EncyStruc": "Warsaw Region",
  "dropdown_EncyStruc": "Warsaw Region",
  "lat": 51.77761,
  "lng": 20.69917
 },
 {
  "SiteName": "Cairo Montenotte",
  "SiteType": "Camp",
  "EncyStruc": "Italy",
  "dropdown_EncyStruc": "Italy",
  "lat": 44.40081,
  "lng": 8.27325
 },
 {
  "SiteName": "Calafat",
  "SiteType": "Camp",
  "EncyStruc": "Romania",
  "dropdown_EncyStruc": "Romania",
  "lat": 43.98975,
  "lng": 22.93411
 },
 {
  "SiteName": "Calvari di Chiavari",
  "SiteType": "Camp",
  "EncyStruc": "Italy",
  "dropdown_EncyStruc": "Italy",
  "lat": 44.38194,
  "lng": 9.28619
 },
 {
  "SiteName": "Calw",
  "SiteType": "Subcamp",
  "EncyStruc": "Natzweiler-Struthof",
  "dropdown_EncyStruc": "Natzweiler-Struthof",
  "lat": 48.71897,
  "lng": 8.73766
 },
 {
  "SiteName": "Campagna",
  "SiteType": "Camp",
  "EncyStruc": "Italy",
  "dropdown_EncyStruc": "Italy",
  "lat": 40.66708,
  "lng": 15.10681
 },
 {
  "SiteName": "Camugnano",
  "SiteType": "Camp",
  "EncyStruc": "Italy",
  "dropdown_EncyStruc": "Italy",
  "lat": 44.17028,
  "lng": 11.08861
 },
 {
  "SiteName": "Capusterna",
  "SiteType": "Ghetto",
  "EncyStruc": "Romania",
  "dropdown_EncyStruc": "Romania",
  "lat": 48.85003,
  "lng": 28.12189
 },
 {
  "SiteName": "Capustiani",
  "SiteType": "Camp",
  "EncyStruc": "Romania",
  "dropdown_EncyStruc": "Romania",
  "lat": 48.52478,
  "lng": 29.0305
 },
 {
  "SiteName": "Caracal",
  "SiteType": "Camp",
  "EncyStruc": "Romania",
  "dropdown_EncyStruc": "Romania",
  "lat": 44.11575,
  "lng": 24.34247
 },
 {
  "SiteName": "Carişcov",
  "SiteType": "Ghetto",
  "EncyStruc": "Romania",
  "dropdown_EncyStruc": "Romania",
  "lat": 48.82178,
  "lng": 27.89978
 },
 {
  "SiteName": "Carnot",
  "SiteType": "Camp",
  "EncyStruc": "Vichy Africa",
  "dropdown_EncyStruc": "Vichy Africa",
  "lat": 36.26984,
  "lng": 1.68629
 },
 {
  "SiteName": "Casacalenda",
  "SiteType": "Camp",
  "EncyStruc": "Italy",
  "dropdown_EncyStruc": "Italy",
  "lat": 41.73814,
  "lng": 14.84767
 },
 {
  "SiteName": "Casoli",
  "SiteType": "Camp",
  "EncyStruc": "Italy",
  "dropdown_EncyStruc": "Italy",
  "lat": 42.11328,
  "lng": 14.29247
 },
 {
  "SiteName": "Casseneuil",
  "SiteType": "Camp",
  "EncyStruc": "France/Vichy",
  "dropdown_EncyStruc": "France/Vichy",
  "lat": 44.44225,
  "lng": 0.62412
 },
 {
  "SiteName": "Castagnevizza",
  "SiteType": "Camp",
  "EncyStruc": "Italy",
  "dropdown_EncyStruc": "Italy",
  "lat": 45.84261,
  "lng": 13.64381
 },
 {
  "SiteName": "Castel di Guido",
  "SiteType": "Camp",
  "EncyStruc": "Italy",
  "dropdown_EncyStruc": "Italy",
  "lat": 41.90297,
  "lng": 12.31633
 },
 {
  "SiteName": "Castres",
  "SiteType": "Camp",
  "EncyStruc": "France/Vichy",
  "dropdown_EncyStruc": "France/Vichy",
  "lat": 43.6,
  "lng": 2.25
 },
 {
  "SiteName": "Catus",
  "SiteType": "Camp",
  "EncyStruc": "France/Vichy",
  "dropdown_EncyStruc": "France/Vichy",
  "lat": 44.55739,
  "lng": 1.33694
 },
 {
  "SiteName": "Cauterets",
  "SiteType": "Ghetto",
  "EncyStruc": "France/Vichy",
  "dropdown_EncyStruc": "France/Vichy",
  "lat": 42.88906,
  "lng": 0.11425
 },
 {
  "SiteName": "Caylus",
  "SiteType": "Camp",
  "EncyStruc": "France/Vichy",
  "dropdown_EncyStruc": "France/Vichy",
  "lat": 44.23583,
  "lng": 1.77186
 },
 {
  "SiteName": "Cazaciovca",
  "SiteType": "Ghetto",
  "EncyStruc": "Romania",
  "dropdown_EncyStruc": "Romania",
  "lat": 49.02481,
  "lng": 28.09411
 },
 {
  "SiteName": "Caţmazov",
  "SiteType": "Ghetto",
  "EncyStruc": "Romania",
  "dropdown_EncyStruc": "Romania",
  "lat": 48.90186,
  "lng": 27.94458
 },
 {
  "SiteName": "Cernoviţi",
  "SiteType": "Ghetto",
  "EncyStruc": "Romania",
  "dropdown_EncyStruc": "Romania",
  "lat": 48.54278,
  "lng": 28.1075
 },
 {
  "SiteName": "Cernăuţi",
  "SiteType": "Ghetto",
  "EncyStruc": "Romania",
  "dropdown_EncyStruc": "Romania",
  "lat": 48.29139,
  "lng": 25.94028
 },
 {
  "SiteName": "Cetvertinovca",
  "SiteType": "Ghetto",
  "EncyStruc": "Romania",
  "dropdown_EncyStruc": "Romania",
  "lat": 48.5895,
  "lng": 29.28256
 },
 {
  "SiteName": "Chabanet",
  "SiteType": "Camp",
  "EncyStruc": "France/Vichy",
  "dropdown_EncyStruc": "France/Vichy",
  "lat": 44.72278,
  "lng": 4.5
 },
 {
  "SiteName": "Charlottengrube",
  "SiteType": "Subcamp",
  "EncyStruc": "Auschwitz",
  "dropdown_EncyStruc": "Auschwitz",
  "lat": 50.0677,
  "lng": 18.44477
 },
 {
  "SiteName": "Chashniki",
  "SiteType": "Ghetto",
  "EncyStruc": "Eastern Belorussia Region",
  "dropdown_EncyStruc": "Eastern Belorussia Region",
  "lat": 54.85971,
  "lng": 29.16343
 },
 {
  "SiteName": "Chaudes-Aigues",
  "SiteType": "Ghetto",
  "EncyStruc": "France/Vichy",
  "dropdown_EncyStruc": "France/Vichy",
  "lat": 44.85514,
  "lng": 2.00394
 },
 {
  "SiteName": "Chausy",
  "SiteType": "Ghetto",
  "EncyStruc": "Eastern Belorussia Region",
  "dropdown_EncyStruc": "Eastern Belorussia Region",
  "lat": 53.80886,
  "lng": 30.98023
 },
 {
  "SiteName": "Chechersk",
  "SiteType": "Ghetto",
  "EncyStruc": "Eastern Belorussia Region",
  "dropdown_EncyStruc": "Eastern Belorussia Region",
  "lat": 52.91667,
  "lng": 30.91667
 },
 {
  "SiteName": "Chelmno",
  "SiteType": "Death camp",
  "EncyStruc": "",
  "dropdown_EncyStruc": "",
  "lat": 52.1541,
  "lng": 18.72324
 },
 {
  "SiteName": "Chemnitz",
  "SiteType": "Subcamp",
  "EncyStruc": "Flossenbürg",
  "dropdown_EncyStruc": "Flossenbürg",
  "lat": 50.81645,
  "lng": 12.91608
 },
 {
  "SiteName": "Cheragas",
  "SiteType": "Camp",
  "EncyStruc": "Vichy Africa",
  "dropdown_EncyStruc": "Vichy Africa",
  "lat": 36.76601,
  "lng": 2.96025
 },
 {
  "SiteName": "Cherchel",
  "SiteType": "Camp",
  "EncyStruc": "Vichy Africa",
  "dropdown_EncyStruc": "Vichy Africa",
  "lat": 36.60535,
  "lng": 2.19388
 },
 {
  "SiteName": "Cherikov",
  "SiteType": "Ghetto",
  "EncyStruc": "Eastern Belorussia Region",
  "dropdown_EncyStruc": "Eastern Belorussia Region",
  "lat": 53.56667,
  "lng": 31.38333
 },
 {
  "SiteName": "Cherkassy",
  "SiteType": "Ghetto",
  "EncyStruc": "Kiev Region",
  "dropdown_EncyStruc": "Kiev Region",
  "lat": 49.43333,
  "lng": 32.06667
 },
 {
  "SiteName": "Cherniakhov",
  "SiteType": "Ghetto",
  "EncyStruc": "Zhytomyr Region",
  "dropdown_EncyStruc": "Zhytomyr Region",
  "lat": 50.45383,
  "lng": 28.67414
 },
 {
  "SiteName": "Chernobyl'",
  "SiteType": "Ghetto",
  "EncyStruc": "Kiev Region",
  "dropdown_EncyStruc": "Kiev Region",
  "lat": 51.26667,
  "lng": 30.23333
 },
 {
  "SiteName": "Chernyi Ostrov",
  "SiteType": "Ghetto",
  "EncyStruc": "Volhynia and Podolia Region",
  "dropdown_EncyStruc": "Volhynia and Podolia Region",
  "lat": 49.50541,
  "lng": 26.75651
 },
 {
  "SiteName": "Cherven’",
  "SiteType": "Ghetto",
  "EncyStruc": "Eastern Belorussia Region",
  "dropdown_EncyStruc": "Eastern Belorussia Region",
  "lat": 53.7,
  "lng": 28.43333
 },
 {
  "SiteName": "Chervonoarmeisk",
  "SiteType": "Ghetto",
  "EncyStruc": "Zhytomyr Region",
  "dropdown_EncyStruc": "Zhytomyr Region",
  "lat": 50.46667,
  "lng": 28.26667
 },
 {
  "SiteName": "Chełm (Lubelski)",
  "SiteType": "Ghetto",
  "EncyStruc": "Lublin Region",
  "dropdown_EncyStruc": "Lublin Region",
  "lat": 51.15,
  "lng": 23.48333
 },
 {
  "SiteName": "Chełmek-Paprotnik",
  "SiteType": "Subcamp",
  "EncyStruc": "Auschwitz",
  "dropdown_EncyStruc": "Auschwitz",
  "lat": 50.10389,
  "lng": 19.27348
 },
 {
  "SiteName": "Chianovca",
  "SiteType": "Camp",
  "EncyStruc": "Romania",
  "dropdown_EncyStruc": "Romania",
  "lat": 48.99,
  "lng": 27.715
 },
 {
  "SiteName": "Chibron",
  "SiteType": "Camp",
  "EncyStruc": "France/Vichy",
  "dropdown_EncyStruc": "France/Vichy",
  "lat": 43.28889,
  "lng": 5.82564
 },
 {
  "SiteName": "Chiesanuova",
  "SiteType": "Camp",
  "EncyStruc": "Italy",
  "dropdown_EncyStruc": "Italy",
  "lat": 45.40628,
  "lng": 11.83331
 },
 {
  "SiteName": "Chieti",
  "SiteType": "Camp",
  "EncyStruc": "Italy",
  "dropdown_EncyStruc": "Italy",
  "lat": 42.34764,
  "lng": 14.16378
 },
 {
  "SiteName": "Chişinău",
  "SiteType": "Ghetto",
  "EncyStruc": "Romania",
  "dropdown_EncyStruc": "Romania",
  "lat": 47.02686,
  "lng": 28.84156
 },
 {
  "SiteName": "Chmielnik",
  "SiteType": "Ghetto",
  "EncyStruc": "Radom Region",
  "dropdown_EncyStruc": "Radom Region",
  "lat": 50.61415,
  "lng": 20.7521
 },
 {
  "SiteName": "Chocieńczyce",
  "SiteType": "Ghetto",
  "EncyStruc": "Weissruthenien Region",
  "dropdown_EncyStruc": "Weissruthenien Region",
  "lat": 54.31667,
  "lng": 27.38333
 },
 {
  "SiteName": "Chocz",
  "SiteType": "Ghetto",
  "EncyStruc": "Warthegau Region",
  "dropdown_EncyStruc": "Warthegau Region",
  "lat": 51.97579,
  "lng": 17.86956
 },
 {
  "SiteName": "Chodel",
  "SiteType": "Ghetto",
  "EncyStruc": "Lublin Region",
  "dropdown_EncyStruc": "Lublin Region",
  "lat": 51.11119,
  "lng": 22.13267
 },
 {
  "SiteName": "Chodorów",
  "SiteType": "Ghetto",
  "EncyStruc": "Eastern Galicia Region",
  "dropdown_EncyStruc": "Eastern Galicia Region",
  "lat": 49.4,
  "lng": 24.31667
 },
 {
  "SiteName": "Choisel",
  "SiteType": "Camp",
  "EncyStruc": "France/Vichy",
  "dropdown_EncyStruc": "France/Vichy",
  "lat": 48.68669,
  "lng": 2.01864
 },
 {
  "SiteName": "Chomsk",
  "SiteType": "Ghetto",
  "EncyStruc": "Volhynia and Podolia Region",
  "dropdown_EncyStruc": "Volhynia and Podolia Region",
  "lat": 52.33333,
  "lng": 25.23333
 },
 {
  "SiteName": "Christianstadt",
  "SiteType": "Subcamp",
  "EncyStruc": "Gross-Rosen",
  "dropdown_EncyStruc": "Gross-Rosen",
  "lat": 51.79853,
  "lng": 15.23338
 },
 {
  "SiteName": "Chrzanów",
  "SiteType": "Ghetto",
  "EncyStruc": "Eastern Upper Silesia Region",
  "dropdown_EncyStruc": "Eastern Upper Silesia Region",
  "lat": 50.13453,
  "lng": 19.39849
 },
 {
  "SiteName": "Chudnov                                         ",
  "SiteType": "Ghetto",
  "EncyStruc": "Zhytomyr Region",
  "dropdown_EncyStruc": "Zhytomyr Region",
  "lat": 50.05,
  "lng": 28.11667
 },
 {
  "SiteName": "Château de Bégué",
  "SiteType": "Camp",
  "EncyStruc": "France/Vichy",
  "dropdown_EncyStruc": "France/Vichy",
  "lat": 43.94172,
  "lng": 0.05442
 },
 {
  "SiteName": "Château de Tombebouc",
  "SiteType": "Camp",
  "EncyStruc": "France/Vichy",
  "dropdown_EncyStruc": "France/Vichy",
  "lat": 44.36475,
  "lng": 0.62122
 },
 {
  "SiteName": "Château du Roc",
  "SiteType": "Camp",
  "EncyStruc": "France/Vichy",
  "dropdown_EncyStruc": "France/Vichy",
  "lat": 44.90722,
  "lng": 1.11806
 },
 {
  "SiteName": "Château du Sablou",
  "SiteType": "Camp",
  "EncyStruc": "France/Vichy",
  "dropdown_EncyStruc": "France/Vichy",
  "lat": 45.07297,
  "lng": 1.11219
 },
 {
  "SiteName": "Château-Doux",
  "SiteType": "Ghetto",
  "EncyStruc": "France/Vichy",
  "dropdown_EncyStruc": "France/Vichy",
  "lat": 44.97683,
  "lng": 1.84614
 },
 {
  "SiteName": "Chęciny",
  "SiteType": "Ghetto",
  "EncyStruc": "Radom Region",
  "dropdown_EncyStruc": "Radom Region",
  "lat": 50.8012,
  "lng": 20.46213
 },
 {
  "SiteName": "Cicelnic",
  "SiteType": "Ghetto",
  "EncyStruc": "Romania",
  "dropdown_EncyStruc": "Romania",
  "lat": 48.217,
  "lng": 29.35
 },
 {
  "SiteName": "Ciechanowiec",
  "SiteType": "Ghetto",
  "EncyStruc": "Białystok Region",
  "dropdown_EncyStruc": "Białystok Region",
  "lat": 52.67826,
  "lng": 22.49817
 },
 {
  "SiteName": "Ciechanów",
  "SiteType": "Ghetto",
  "EncyStruc": "Zichenau Region",
  "dropdown_EncyStruc": "Zichenau Region",
  "lat": 52.88153,
  "lng": 20.61982
 },
 {
  "SiteName": "Ciechocinek",
  "SiteType": "Ghetto",
  "EncyStruc": "Warthegau Region",
  "dropdown_EncyStruc": "Warthegau Region",
  "lat": 52.87909,
  "lng": 18.79486
 },
 {
  "SiteName": "Ciepielów",
  "SiteType": "Ghetto",
  "EncyStruc": "Radom Region",
  "dropdown_EncyStruc": "Radom Region",
  "lat": 51.2487,
  "lng": 21.57538
 },
 {
  "SiteName": "Cieszanów",
  "SiteType": "Ghetto",
  "EncyStruc": "Lublin Region",
  "dropdown_EncyStruc": "Lublin Region",
  "lat": 50.24478,
  "lng": 23.13064
 },
 {
  "SiteName": "Cighino",
  "SiteType": "Camp",
  "EncyStruc": "Italian-occupied Yugoslavia",
  "dropdown_EncyStruc": "Italian-occupied Yugoslavia",
  "lat": 46.96,
  "lng": 13.65
 },
 {
  "SiteName": "Cihrin",
  "SiteType": "Camp",
  "EncyStruc": "Romania",
  "dropdown_EncyStruc": "Romania",
  "lat": 47.127,
  "lng": 30.738
 },
 {
  "SiteName": "Città Sant’ Angelo",
  "SiteType": "Camp",
  "EncyStruc": "Italy",
  "dropdown_EncyStruc": "Italy",
  "lat": 42.51764,
  "lng": 14.06019
 },
 {
  "SiteName": "Civitella del Tronto",
  "SiteType": "Camp",
  "EncyStruc": "Italy",
  "dropdown_EncyStruc": "Italy",
  "lat": 42.77278,
  "lng": 13.67611
 },
 {
  "SiteName": "Civitella della Chiana",
  "SiteType": "Camp",
  "EncyStruc": "Italy",
  "dropdown_EncyStruc": "Italy",
  "lat": 43.4175,
  "lng": 11.72333
 },
 {
  "SiteName": "Cochem",
  "SiteType": "Subcamp",
  "EncyStruc": "Hinzert",
  "dropdown_EncyStruc": "Hinzert",
  "lat": 50.15517,
  "lng": 7.29364
 },
 {
  "SiteName": "Cochem-Bruttig ",
  "SiteType": "Subcamp",
  "EncyStruc": "Natzweiler-Struthof",
  "dropdown_EncyStruc": "Natzweiler-Struthof",
  "lat": 50.144,
  "lng": 7.23725
 },
 {
  "SiteName": "Cochum-Treis ",
  "SiteType": "Subcamp",
  "EncyStruc": "Natzweiler-Struthof",
  "dropdown_EncyStruc": "Natzweiler-Struthof",
  "lat": 50.16836,
  "lng": 7.29413
 },
 {
  "SiteName": "Colditz",
  "SiteType": "Subcamp",
  "EncyStruc": "Buchenwald",
  "dropdown_EncyStruc": "Buchenwald",
  "lat": 51.12725,
  "lng": 12.80171
 },
 {
  "SiteName": "Colfiorito",
  "SiteType": "Camp",
  "EncyStruc": "Italy",
  "dropdown_EncyStruc": "Italy",
  "lat": 43.02806,
  "lng": 12.89083
 },
 {
  "SiteName": "Colle di Compito",
  "SiteType": "Camp",
  "EncyStruc": "Italy",
  "dropdown_EncyStruc": "Italy",
  "lat": 43.77528,
  "lng": 10.60031
 },
 {
  "SiteName": "Collioure",
  "SiteType": "Camp",
  "EncyStruc": "France/Vichy",
  "dropdown_EncyStruc": "France/Vichy",
  "lat": 42.52678,
  "lng": 3.08464
 },
 {
  "SiteName": "Colomb-Béchar",
  "SiteType": "Camp",
  "EncyStruc": "Vichy Africa",
  "dropdown_EncyStruc": "Vichy Africa",
  "lat": 31.62131,
  "lng": -2.21414
 },
 {
  "SiteName": "Colosovca",
  "SiteType": "Camp",
  "EncyStruc": "Romania",
  "dropdown_EncyStruc": "Romania",
  "lat": 47.31,
  "lng": 30.909
 },
 {
  "SiteName": "Columbia-Haus",
  "SiteType": "Subcamp",
  "EncyStruc": "Early camps",
  "dropdown_EncyStruc": "Early camps",
  "lat": 52.48377,
  "lng": 13.40062
 },
 {
  "SiteName": "Comthurey",
  "SiteType": "Subcamp",
  "EncyStruc": "Ravensbrück",
  "dropdown_EncyStruc": "Ravensbrück",
  "lat": 53.26616,
  "lng": 13.19337
 },
 {
  "SiteName": "Conakry",
  "SiteType": "Camp",
  "EncyStruc": "Vichy Africa",
  "dropdown_EncyStruc": "Vichy Africa",
  "lat": 9.5099,
  "lng": -13.71056
 },
 {
  "SiteName": "Conotcăuti",
  "SiteType": "Camp",
  "EncyStruc": "Romania",
  "dropdown_EncyStruc": "Romania",
  "lat": 48.71,
  "lng": 27.95028
 },
 {
  "SiteName": "Constantine",
  "SiteType": "Camp",
  "EncyStruc": "Vichy Africa",
  "dropdown_EncyStruc": "Vichy Africa",
  "lat": 36.35456,
  "lng": 6.63812
 },
 {
  "SiteName": "Copaigorod",
  "SiteType": "Ghetto",
  "EncyStruc": "Romania",
  "dropdown_EncyStruc": "Romania",
  "lat": 48.855,
  "lng": 27.80194
 },
 {
  "SiteName": "Coray ",
  "SiteType": "Camp",
  "EncyStruc": "France/Vichy",
  "dropdown_EncyStruc": "France/Vichy",
  "lat": 48.06083,
  "lng": 3.83033
 },
 {
  "SiteName": "Corbeni / LPRS No. 10",
  "SiteType": "Camp",
  "EncyStruc": "Romania",
  "dropdown_EncyStruc": "Romania",
  "lat": 45.30572,
  "lng": 24.65369
 },
 {
  "SiteName": "Corfu-Lazaretto Island",
  "SiteType": "Camp",
  "EncyStruc": "Italian-occupied Greece",
  "dropdown_EncyStruc": "Italian-occupied Greece",
  "lat": 39.64892,
  "lng": 19.88044
 },
 {
  "SiteName": "Corneşti Târg",
  "SiteType": "Camp",
  "EncyStruc": "Romania",
  "dropdown_EncyStruc": "Romania",
  "lat": 47.36361,
  "lng": 27.9975
 },
 {
  "SiteName": "Corropoli",
  "SiteType": "Camp",
  "EncyStruc": "Italy",
  "dropdown_EncyStruc": "Italy",
  "lat": 42.82344,
  "lng": 13.83972
 },
 {
  "SiteName": "Cosăuţi",
  "SiteType": "Camp",
  "EncyStruc": "Romania",
  "dropdown_EncyStruc": "Romania",
  "lat": 48.22542,
  "lng": 28.28083
 },
 {
  "SiteName": "Coudrecieux",
  "SiteType": "Camp",
  "EncyStruc": "France/Vichy",
  "dropdown_EncyStruc": "France/Vichy",
  "lat": 47.99306,
  "lng": 0.62881
 },
 {
  "SiteName": "Covaliovca",
  "SiteType": "Ghetto",
  "EncyStruc": "Romania",
  "dropdown_EncyStruc": "Romania",
  "lat": 47.26389,
  "lng": 31.73722
 },
 {
  "SiteName": "Coşarinţi",
  "SiteType": "Ghetto",
  "EncyStruc": "Romania",
  "dropdown_EncyStruc": "Romania",
  "lat": 48.915,
  "lng": 27.792
 },
 {
  "SiteName": "Craiova",
  "SiteType": "Camp",
  "EncyStruc": "Romania",
  "dropdown_EncyStruc": "Romania",
  "lat": 44.32475,
  "lng": 23.81347
 },
 {
  "SiteName": "Crampel",
  "SiteType": "Camp",
  "EncyStruc": "Vichy Africa",
  "dropdown_EncyStruc": "Vichy Africa",
  "lat": 34.42641,
  "lng": -0.81146
 },
 {
  "SiteName": "Crasna",
  "SiteType": "Ghetto",
  "EncyStruc": "Romania",
  "dropdown_EncyStruc": "Romania",
  "lat": 48.91572,
  "lng": 28.40378
 },
 {
  "SiteName": "Crasneanca",
  "SiteType": "Camp",
  "EncyStruc": "Romania",
  "dropdown_EncyStruc": "Romania",
  "lat": 48.13778,
  "lng": 30.32556
 },
 {
  "SiteName": "Crijopol",
  "SiteType": "Ghetto",
  "EncyStruc": "Romania",
  "dropdown_EncyStruc": "Romania",
  "lat": 48.38417,
  "lng": 28.8625
 },
 {
  "SiteName": "Crivoe Ozero",
  "SiteType": "Ghetto",
  "EncyStruc": "Romania",
  "dropdown_EncyStruc": "Romania",
  "lat": 47.94306,
  "lng": 30.34097
 },
 {
  "SiteName": "Cruşinovca",
  "SiteType": "Camp",
  "EncyStruc": "Romania",
  "dropdown_EncyStruc": "Romania",
  "lat": 48.48,
  "lng": 29.58
 },
 {
  "SiteName": "Crăciuneşti and Vulcan / LPRS No. 9",
  "SiteType": "Camp",
  "EncyStruc": "Romania",
  "dropdown_EncyStruc": "Romania",
  "lat": 46.01444,
  "lng": 22.87028
 },
 {
  "SiteName": "Csepel Island",
  "SiteType": "Ghetto",
  "EncyStruc": "Hungary",
  "dropdown_EncyStruc": "Hungary",
  "lat": 47.41369,
  "lng": 19.06953
 },
 {
  "SiteName": "Csepel Island / internment camps",
  "SiteType": "Camp",
  "EncyStruc": "Hungary",
  "dropdown_EncyStruc": "Hungary",
  "lat": 47.3965,
  "lng": 19.04892
 },
 {
  "SiteName": "Csongrád",
  "SiteType": "Ghetto",
  "EncyStruc": "Hungary",
  "dropdown_EncyStruc": "Hungary",
  "lat": 46.70842,
  "lng": 20.14361
 },
 {
  "SiteName": "Csörgő",
  "SiteType": "Camp",
  "EncyStruc": "Hungary",
  "dropdown_EncyStruc": "Hungary",
  "lat": 48.46017,
  "lng": 21.64167
 },
 {
  "SiteName": "Cucavca",
  "SiteType": "Ghetto",
  "EncyStruc": "Romania",
  "dropdown_EncyStruc": "Romania",
  "lat": 48.60361,
  "lng": 27.705
 },
 {
  "SiteName": "Cupari",
  "SiteType": "Camp",
  "EncyStruc": "Italian-occupied Yugoslavia",
  "dropdown_EncyStruc": "Italian-occupied Yugoslavia",
  "lat": 42.62028,
  "lng": 18.19139
 },
 {
  "SiteName": "Curzola Island",
  "SiteType": "Camp",
  "EncyStruc": "Italian-occupied Yugoslavia",
  "dropdown_EncyStruc": "Italian-occupied Yugoslavia",
  "lat": 42.96222,
  "lng": 17.13694
 },
 {
  "SiteName": "Cuzminţi ",
  "SiteType": "Ghetto",
  "EncyStruc": "Romania",
  "dropdown_EncyStruc": "Romania",
  "lat": 48.958,
  "lng": 27.682
 },
 {
  "SiteName": "Czeladź",
  "SiteType": "Ghetto",
  "EncyStruc": "Eastern Upper Silesia Region",
  "dropdown_EncyStruc": "Eastern Upper Silesia Region",
  "lat": 50.31711,
  "lng": 19.07075
 },
 {
  "SiteName": "Czerwińsk nad Wisła",
  "SiteType": "Ghetto",
  "EncyStruc": "Zichenau Region",
  "dropdown_EncyStruc": "Zichenau Region",
  "lat": 52.39787,
  "lng": 20.30926
 },
 {
  "SiteName": "Czetwiertnia",
  "SiteType": "Ghetto",
  "EncyStruc": "Volhynia and Podolia Region",
  "dropdown_EncyStruc": "Volhynia and Podolia Region",
  "lat": 51.05,
  "lng": 25.46667
 },
 {
  "SiteName": "Czortków",
  "SiteType": "Ghetto",
  "EncyStruc": "Eastern Galicia Region",
  "dropdown_EncyStruc": "Eastern Galicia Region",
  "lat": 49.008,
  "lng": 25.791
 },
 {
  "SiteName": "Czudec",
  "SiteType": "Ghetto",
  "EncyStruc": "Kraków Region",
  "dropdown_EncyStruc": "Kraków Region",
  "lat": 49.94544,
  "lng": 21.83753
 },
 {
  "SiteName": "Czyżewo",
  "SiteType": "Ghetto",
  "EncyStruc": "Białystok Region",
  "dropdown_EncyStruc": "Białystok Region",
  "lat": 52.79751,
  "lng": 22.31229
 },
 {
  "SiteName": "Częstochowa",
  "SiteType": "Ghetto",
  "EncyStruc": "Radom Region",
  "dropdown_EncyStruc": "Radom Region",
  "lat": 50.813,
  "lng": 19.13016
 },
 {
  "SiteName": "Călăraşi ",
  "SiteType": "Camp",
  "EncyStruc": "Romania",
  "dropdown_EncyStruc": "Romania",
  "lat": 44.20203,
  "lng": 27.33003
 },
 {
  "SiteName": "Dachau",
  "SiteType": "Main camp",
  "EncyStruc": "Dachau",
  "dropdown_EncyStruc": "Dachau",
  "lat": 48.26961,
  "lng": 11.46848
 },
 {
  "SiteName": "Dachau Entomologisches Institut der Waffen-SS",
  "SiteType": "Subcamp",
  "EncyStruc": "Dachau",
  "dropdown_EncyStruc": "Dachau",
  "lat": 48.27922,
  "lng": 11.46425
 },
 {
  "SiteName": "Dachau Fleischwarenfabrik Wülfert",
  "SiteType": "Subcamp",
  "EncyStruc": "Dachau",
  "dropdown_EncyStruc": "Dachau",
  "lat": 48.25744,
  "lng": 11.43908
 },
 {
  "SiteName": "Dachau Gut Pollnhof",
  "SiteType": "Subcamp",
  "EncyStruc": "Dachau",
  "dropdown_EncyStruc": "Dachau",
  "lat": 48.26251,
  "lng": 11.45131
 },
 {
  "SiteName": "Dachau Präzifix GmbH",
  "SiteType": "Subcamp",
  "EncyStruc": "Dachau",
  "dropdown_EncyStruc": "Dachau",
  "lat": 48.27945,
  "lng": 11.45968
 },
 {
  "SiteName": "Dammsmühle",
  "SiteType": "Subcamp",
  "EncyStruc": "Sachsenhausen",
  "dropdown_EncyStruc": "Sachsenhausen",
  "lat": 52.69408,
  "lng": 13.40774
 },
 {
  "SiteName": "Damshöhe",
  "SiteType": "Subcamp",
  "EncyStruc": "Ravensbrück",
  "dropdown_EncyStruc": "Ravensbrück",
  "lat": 53.23069,
  "lng": 13.13906
 },
 {
  "SiteName": "Danzig Betonfabrik",
  "SiteType": "Subcamp",
  "EncyStruc": "Stutthof",
  "dropdown_EncyStruc": "Stutthof",
  "lat": 54.39066,
  "lng": 18.5867
 },
 {
  "SiteName": "Danzig Danziger-Werft",
  "SiteType": "Subcamp",
  "EncyStruc": "Stutthof",
  "dropdown_EncyStruc": "Stutthof",
  "lat": 54.3591,
  "lng": 18.6758
 },
 {
  "SiteName": "Danzig SS-Hauptversorgungslager",
  "SiteType": "Subcamp",
  "EncyStruc": "Stutthof",
  "dropdown_EncyStruc": "Stutthof",
  "lat": 54.35201,
  "lng": 18.64643
 },
 {
  "SiteName": "Danzig SS-Oberabschnitt Weichsel",
  "SiteType": "Subcamp",
  "EncyStruc": "Stutthof",
  "dropdown_EncyStruc": "Stutthof",
  "lat": 54.35197,
  "lng": 18.64656
 },
 {
  "SiteName": "Danzig Schichau-Werft",
  "SiteType": "Subcamp",
  "EncyStruc": "Stutthof",
  "dropdown_EncyStruc": "Stutthof",
  "lat": 54.35406,
  "lng": 18.48306
 },
 {
  "SiteName": "Danzig Schulemann",
  "SiteType": "Subcamp",
  "EncyStruc": "Stutthof",
  "dropdown_EncyStruc": "Stutthof",
  "lat": 54.34927,
  "lng": 18.64222
 },
 {
  "SiteName": "Danzig-Holm",
  "SiteType": "Subcamp",
  "EncyStruc": "Stutthof",
  "dropdown_EncyStruc": "Stutthof",
  "lat": 54.37098,
  "lng": 18.65396
 },
 {
  "SiteName": "Danzig-Langfuhr",
  "SiteType": "Subcamp",
  "EncyStruc": "Stutthof",
  "dropdown_EncyStruc": "Stutthof",
  "lat": 54.37929,
  "lng": 18.61317
 },
 {
  "SiteName": "Danzig-Matzkau",
  "SiteType": "Subcamp",
  "EncyStruc": "Stutthof",
  "dropdown_EncyStruc": "Stutthof",
  "lat": 54.31007,
  "lng": 18.58847
 },
 {
  "SiteName": "Danzig-Oliva Reitschule",
  "SiteType": "Subcamp",
  "EncyStruc": "Stutthof",
  "dropdown_EncyStruc": "Stutthof",
  "lat": 54.35199,
  "lng": 18.64659
 },
 {
  "SiteName": "Danzig-Opitzstrasse",
  "SiteType": "Subcamp",
  "EncyStruc": "Stutthof",
  "dropdown_EncyStruc": "Stutthof",
  "lat": 54.36413,
  "lng": 18.63517
 },
 {
  "SiteName": "Danzig-Schellmühl Carstens",
  "SiteType": "Subcamp",
  "EncyStruc": "Stutthof",
  "dropdown_EncyStruc": "Stutthof",
  "lat": 54.35039,
  "lng": 18.66495
 },
 {
  "SiteName": "Danzig-Schellmühl Otto Jost",
  "SiteType": "Subcamp",
  "EncyStruc": "Stutthof",
  "dropdown_EncyStruc": "Stutthof",
  "lat": 54.35348,
  "lng": 18.64978
 },
 {
  "SiteName": "Danzig-Westerplatte",
  "SiteType": "Subcamp",
  "EncyStruc": "Stutthof",
  "dropdown_EncyStruc": "Stutthof",
  "lat": 54.40739,
  "lng": 18.66859
 },
 {
  "SiteName": "Danzig-Zigankenberg",
  "SiteType": "Subcamp",
  "EncyStruc": "Stutthof",
  "dropdown_EncyStruc": "Stutthof",
  "lat": 54.3548,
  "lng": 18.60318
 },
 {
  "SiteName": "Daraganovo",
  "SiteType": "Ghetto",
  "EncyStruc": "Eastern Belorussia Region",
  "dropdown_EncyStruc": "Eastern Belorussia Region",
  "lat": 53.1749,
  "lng": 28.49583
 },
 {
  "SiteName": "Darbėnai",
  "SiteType": "Ghetto",
  "EncyStruc": "Lithuania Region",
  "dropdown_EncyStruc": "Lithuania Region",
  "lat": 56.02328,
  "lng": 21.2559
 },
 {
  "SiteName": "Darmstadt",
  "SiteType": "Subcamp",
  "EncyStruc": "Natzweiler-Struthof",
  "dropdown_EncyStruc": "Natzweiler-Struthof",
  "lat": 49.87263,
  "lng": 8.65097
 },
 {
  "SiteName": "Darss-Wieck",
  "SiteType": "Subcamp",
  "EncyStruc": "Neuengamme",
  "dropdown_EncyStruc": "Neuengamme",
  "lat": 54.40994,
  "lng": 12.58037
 },
 {
  "SiteName": "Darss-Zingst",
  "SiteType": "Subcamp",
  "EncyStruc": "Neuengamme",
  "dropdown_EncyStruc": "Neuengamme",
  "lat": 54.43553,
  "lng": 12.68309
 },
 {
  "SiteName": "Darsūniškis",
  "SiteType": "Ghetto",
  "EncyStruc": "Lithuania Region",
  "dropdown_EncyStruc": "Lithuania Region",
  "lat": 54.73617,
  "lng": 24.11842
 },
 {
  "SiteName": "Dashev",
  "SiteType": "Ghetto",
  "EncyStruc": "Zhytomyr Region",
  "dropdown_EncyStruc": "Zhytomyr Region",
  "lat": 49.0,
  "lng": 29.45
 },
 {
  "SiteName": "Daugavpils              ",
  "SiteType": "Ghetto",
  "EncyStruc": "Estonia and Latvia Regions",
  "dropdown_EncyStruc": "Estonia and Latvia Regions",
  "lat": 55.8753,
  "lng": 26.53575
 },
 {
  "SiteName": "Daugieliszki",
  "SiteType": "Ghetto",
  "EncyStruc": "Lithuania Region",
  "dropdown_EncyStruc": "Lithuania Region",
  "lat": 55.34112,
  "lng": 26.28014
 },
 {
  "SiteName": "Dautmergen",
  "SiteType": "Subcamp",
  "EncyStruc": "Natzweiler-Struthof",
  "dropdown_EncyStruc": "Natzweiler-Struthof",
  "lat": 48.22193,
  "lng": 8.75053
 },
 {
  "SiteName": "Dawidgródek",
  "SiteType": "Ghetto",
  "EncyStruc": "Volhynia and Podolia Region",
  "dropdown_EncyStruc": "Volhynia and Podolia Region",
  "lat": 52.05491,
  "lng": 27.21274
 },
 {
  "SiteName": "Debrecen",
  "SiteType": "Ghetto",
  "EncyStruc": "Hungary",
  "dropdown_EncyStruc": "Hungary",
  "lat": 47.52997,
  "lng": 21.63936
 },
 {
  "SiteName": "Degeš",
  "SiteType": "Camp",
  "EncyStruc": "Slovakia",
  "dropdown_EncyStruc": "Slovakia",
  "lat": 48.13631,
  "lng": 18.07525
 },
 {
  "SiteName": "Demidov",
  "SiteType": "Ghetto",
  "EncyStruc": "Occupied Russian Territory",
  "dropdown_EncyStruc": "Occupied Russian Territory",
  "lat": 55.26667,
  "lng": 31.51667
 },
 {
  "SiteName": "Demidówka",
  "SiteType": "Ghetto",
  "EncyStruc": "Volhynia and Podolia Region",
  "dropdown_EncyStruc": "Volhynia and Podolia Region",
  "lat": 50.42838,
  "lng": 25.33611
 },
 {
  "SiteName": "Denków",
  "SiteType": "Ghetto",
  "EncyStruc": "Radom Region",
  "dropdown_EncyStruc": "Radom Region",
  "lat": 50.93021,
  "lng": 21.42195
 },
 {
  "SiteName": "Derazhnia",
  "SiteType": "Ghetto",
  "EncyStruc": "Volhynia and Podolia Region",
  "dropdown_EncyStruc": "Volhynia and Podolia Region",
  "lat": 49.26667,
  "lng": 27.43333
 },
 {
  "SiteName": "Deraźne",
  "SiteType": "Ghetto",
  "EncyStruc": "Volhynia and Podolia Region",
  "dropdown_EncyStruc": "Volhynia and Podolia Region",
  "lat": 50.86667,
  "lng": 26.05
 },
 {
  "SiteName": "Derebcin",
  "SiteType": "Ghetto",
  "EncyStruc": "Romania",
  "dropdown_EncyStruc": "Romania",
  "lat": 48.76,
  "lng": 28.33
 },
 {
  "SiteName": "Dereczyn",
  "SiteType": "Ghetto",
  "EncyStruc": "Weissruthenien Region",
  "dropdown_EncyStruc": "Weissruthenien Region",
  "lat": 53.25,
  "lng": 24.91667
 },
 {
  "SiteName": "Dernau ",
  "SiteType": "Subcamp",
  "EncyStruc": "Buchenwald",
  "dropdown_EncyStruc": "Buchenwald",
  "lat": 50.52866,
  "lng": 7.04779
 },
 {
  "SiteName": "Dernau an der Ahr",
  "SiteType": "Subcamp",
  "EncyStruc": "Natzweiler-Struthof",
  "dropdown_EncyStruc": "Natzweiler-Struthof",
  "lat": 50.54142,
  "lng": 7.08023
 },
 {
  "SiteName": "Dessau Dessauer Waggonfabrik",
  "SiteType": "Subcamp",
  "EncyStruc": "Buchenwald",
  "dropdown_EncyStruc": "Buchenwald",
  "lat": 51.85409,
  "lng": 12.24483
 },
 {
  "SiteName": "Dessau Junkers Flugzeug- & Motorenwerke",
  "SiteType": "Subcamp",
  "EncyStruc": "Buchenwald",
  "dropdown_EncyStruc": "Buchenwald",
  "lat": 51.83347,
  "lng": 12.24088
 },
 {
  "SiteName": "Detached Battalion 21",
  "SiteType": "Camp",
  "EncyStruc": "Finland",
  "dropdown_EncyStruc": "Finland",
  "lat": 61.14194,
  "lng": 33.02035
 },
 {
  "SiteName": "Devínska Nová Ves",
  "SiteType": "Camp",
  "EncyStruc": "Slovakia",
  "dropdown_EncyStruc": "Slovakia",
  "lat": 48.20944,
  "lng": 16.97278
 },
 {
  "SiteName": "Dippoldsau",
  "SiteType": "Subcamp",
  "EncyStruc": "Mauthausen",
  "dropdown_EncyStruc": "Mauthausen",
  "lat": 47.86337,
  "lng": 14.61088
 },
 {
  "SiteName": "Djebel Chambi",
  "SiteType": "Camp",
  "EncyStruc": "Tunisia",
  "dropdown_EncyStruc": "Tunisia",
  "lat": 35.20645,
  "lng": 8.6864
 },
 {
  "SiteName": "Djebel-Felten",
  "SiteType": "Camp",
  "EncyStruc": "Vichy Africa",
  "dropdown_EncyStruc": "Vichy Africa",
  "lat": 36.21754,
  "lng": 6.4457
 },
 {
  "SiteName": "Djebibinia",
  "SiteType": "Camp",
  "EncyStruc": "Tunisia",
  "dropdown_EncyStruc": "Tunisia",
  "lat": 36.12967,
  "lng": 10.11014
 },
 {
  "SiteName": "Djelfa",
  "SiteType": "Camp",
  "EncyStruc": "Vichy Africa",
  "dropdown_EncyStruc": "Vichy Africa",
  "lat": 34.6736,
  "lng": 3.26109
 },
 {
  "SiteName": "Djelloula",
  "SiteType": "Camp",
  "EncyStruc": "Tunisia",
  "dropdown_EncyStruc": "Tunisia",
  "lat": 35.80029,
  "lng": 9.79898
 },
 {
  "SiteName": "Djenien Bou Rezg",
  "SiteType": "Camp",
  "EncyStruc": "Vichy Africa",
  "dropdown_EncyStruc": "Vichy Africa",
  "lat": 32.36384,
  "lng": -0.79813
 },
 {
  "SiteName": "Djerrada",
  "SiteType": "Camp",
  "EncyStruc": "Vichy Africa",
  "dropdown_EncyStruc": "Vichy Africa",
  "lat": 34.30547,
  "lng": -2.17929
 },
 {
  "SiteName": "Djougar",
  "SiteType": "Camp",
  "EncyStruc": "Tunisia",
  "dropdown_EncyStruc": "Tunisia",
  "lat": 36.25536,
  "lng": 9.94608
 },
 {
  "SiteName": "Djurin",
  "SiteType": "Ghetto",
  "EncyStruc": "Romania",
  "dropdown_EncyStruc": "Romania",
  "lat": 48.678,
  "lng": 28.289
 },
 {
  "SiteName": "Dmitriev-L‘govskiy",
  "SiteType": "Ghetto",
  "EncyStruc": "Occupied Russian Territory",
  "dropdown_EncyStruc": "Occupied Russian Territory",
  "lat": 52.11667,
  "lng": 35.06667
 },
 {
  "SiteName": "Dmitrovka",
  "SiteType": "Ghetto",
  "EncyStruc": "Eastern Ukraine and Crimea Region",
  "dropdown_EncyStruc": "Eastern Ukraine and Crimea Region",
  "lat": 50.21843,
  "lng": 35.40294
 },
 {
  "SiteName": "Doaga",
  "SiteType": "Camp",
  "EncyStruc": "Romania",
  "dropdown_EncyStruc": "Romania",
  "lat": 45.83028,
  "lng": 27.29333
 },
 {
  "SiteName": "Dobele                  ",
  "SiteType": "Ghetto",
  "EncyStruc": "Estonia and Latvia Regions",
  "dropdown_EncyStruc": "Estonia and Latvia Regions",
  "lat": 56.62442,
  "lng": 23.28017
 },
 {
  "SiteName": "Dobra",
  "SiteType": "Ghetto",
  "EncyStruc": "Warthegau Region",
  "dropdown_EncyStruc": "Warthegau Region",
  "lat": 51.91598,
  "lng": 18.61521
 },
 {
  "SiteName": "Dobre",
  "SiteType": "Ghetto",
  "EncyStruc": "Warsaw Region",
  "dropdown_EncyStruc": "Warsaw Region",
  "lat": 52.32086,
  "lng": 21.67878
 },
 {
  "SiteName": "Dobromil",
  "SiteType": "Ghetto",
  "EncyStruc": "Kraków Region",
  "dropdown_EncyStruc": "Kraków Region",
  "lat": 49.56667,
  "lng": 22.78333
 },
 {
  "SiteName": "Dobrovelichkovka",
  "SiteType": "Ghetto",
  "EncyStruc": "Nikolaev and Dnepropetrovsk Regions",
  "dropdown_EncyStruc": "Nikolaev and Dnepropetrovsk Regions",
  "lat": 48.38333,
  "lng": 31.18333
 },
 {
  "SiteName": "Dobrush",
  "SiteType": "Ghetto",
  "EncyStruc": "Eastern Belorussia Region",
  "dropdown_EncyStruc": "Eastern Belorussia Region",
  "lat": 52.40292,
  "lng": 31.3294
 },
 {
  "SiteName": "Dokszyce",
  "SiteType": "Ghetto",
  "EncyStruc": "Weissruthenien Region",
  "dropdown_EncyStruc": "Weissruthenien Region",
  "lat": 54.9,
  "lng": 27.75
 },
 {
  "SiteName": "Dolina",
  "SiteType": "Ghetto",
  "EncyStruc": "Eastern Galicia Region",
  "dropdown_EncyStruc": "Eastern Galicia Region",
  "lat": 48.96667,
  "lng": 24.01667
 },
 {
  "SiteName": "Dolna Oryahovitsa",
  "SiteType": "Camp",
  "EncyStruc": "Bulgaria",
  "dropdown_EncyStruc": "Bulgaria",
  "lat": 43.15639,
  "lng": 25.73917
 },
 {
  "SiteName": "Domachau",
  "SiteType": "Subcamp",
  "EncyStruc": "Stutthof",
  "dropdown_EncyStruc": "Stutthof",
  "lat": 54.21663,
  "lng": 18.46675
 },
 {
  "SiteName": "Domaczów",
  "SiteType": "Ghetto",
  "EncyStruc": "Volhynia and Podolia Region",
  "dropdown_EncyStruc": "Volhynia and Podolia Region",
  "lat": 51.74721,
  "lng": 23.59324
 },
 {
  "SiteName": "Domanovca",
  "SiteType": "Camp",
  "EncyStruc": "Romania",
  "dropdown_EncyStruc": "Romania",
  "lat": 47.62922,
  "lng": 30.98964
 },
 {
  "SiteName": "Dondangen I and II with Kurben",
  "SiteType": "Subcamp",
  "EncyStruc": "Riga-Kaiserwald",
  "dropdown_EncyStruc": "Riga-Kaiserwald",
  "lat": 57.54846,
  "lng": 22.32212
 },
 {
  "SiteName": "Dormettingen",
  "SiteType": "Subcamp",
  "EncyStruc": "Natzweiler-Struthof",
  "dropdown_EncyStruc": "Natzweiler-Struthof",
  "lat": 48.2375,
  "lng": 8.76459
 },
 {
  "SiteName": "Dornburg",
  "SiteType": "Subcamp",
  "EncyStruc": "Buchenwald",
  "dropdown_EncyStruc": "Buchenwald",
  "lat": 52.03493,
  "lng": 11.88046
 },
 {
  "SiteName": "Dorneşti and Calafat / LPRS No. 6",
  "SiteType": "Camp",
  "EncyStruc": "Romania",
  "dropdown_EncyStruc": "Romania",
  "lat": 47.87119,
  "lng": 26.00111
 },
 {
  "SiteName": "Dorohoi",
  "SiteType": "Ghetto",
  "EncyStruc": "Romania",
  "dropdown_EncyStruc": "Romania",
  "lat": 47.95972,
  "lng": 26.39972
 },
 {
  "SiteName": "Dortmund",
  "SiteType": "Subcamp",
  "EncyStruc": "Buchenwald",
  "dropdown_EncyStruc": "Buchenwald",
  "lat": 51.51332,
  "lng": 7.43286
 },
 {
  "SiteName": "Dortmund Sprengkommando SS-BB III",
  "SiteType": "Subcamp",
  "EncyStruc": "SS-Baubrigaden & SS-Eisenbahnbaubrigaden",
  "dropdown_EncyStruc": "SS-Baubrigaden & SS-Eisenbahnbaubrigaden",
  "lat": 51.51418,
  "lng": 7.46552
 },
 {
  "SiteName": "Douadic",
  "SiteType": "Camp",
  "EncyStruc": "France/Vichy",
  "dropdown_EncyStruc": "France/Vichy",
  "lat": 46.72083,
  "lng": 1.17361
 },
 {
  "SiteName": "Doullens Buchenwald SS-BB V",
  "SiteType": "Subcamp",
  "EncyStruc": "SS-Baubrigaden & SS-Eisenbahnbaubrigaden",
  "dropdown_EncyStruc": "SS-Baubrigaden & SS-Eisenbahnbaubrigaden",
  "lat": 50.15157,
  "lng": 2.33454
 },
 {
  "SiteName": "Dołhinów",
  "SiteType": "Ghetto",
  "EncyStruc": "Weissruthenien Region",
  "dropdown_EncyStruc": "Weissruthenien Region",
  "lat": 54.64531,
  "lng": 27.47711
 },